$GPVTG,96.0,T,176.6,M,4.5,N,8.4,K,A*17
$GPRMC,081958.64,V,4242.03,N,04539.42,W,10.1,220.9,090126,75.6,W*4F
$GPGGA,081958.64,2522.25,N,12503.86,W,0,09,1.2,3124.5,M,-35.8,M,,*63
$GPRMC,081958.64,V,0903.18,S,12707.68,E,36.2,197.5,090126,73.0,E*56
$GPGSA,M,1,26,24,,17,20,14,23,13,,,,12,2.2,1.6,2.6*3C
$GPVTG,290.0,T,81.2,M,33.1,N,61.3,K,D*13
$GPVTG,317.5,T,222.2,M,10.0,N,18.5,K,E*2A
$GPVTG,178.5,T,72.5,M,2.8,N,5.1,K,A*16
$GPGSA,A,3,32,13,25,09,07,11,13,11,24,,,07,3.6,1.7,0.8*30
$GPGSA,A,3,28,25,19,16,,11,,05,30,26,16,20,4.8,1.4,2.5*39
$GPGGA,081958.64,5954.78,S,14313.13,W,8,04,2.4,2778.2,M,-9.6,M,,*49
!AIVDM,1,1,,A,AAAAAAAAAAAAAAAAAAAA,0*26
$GPGGA,081958.64,2201.51,S,00336.85,E,1,07,0.9,8280.2,M,-40.1,M,,*66
$GPGGA,081958.64,5714.95,N,02527.24,E,3,08,2.9,4095.0,M,6.6,M,,*65
!AIVDM,1,1,,A,AAAAAAAAAAAAAAAAAAAA,0*26
$GPRMC,081958.64,V,8812.61,S,10816.06,E,43.4,352.9,090126,56.6,E*56
$GPGSA,M,1,,02,12,06,,23,17,18,,05,02,24,3.3,2.5,1.7*35
$GPVTG,83.2,T,34.4,M,29.7,N,54.9,K,M*21
$GPRMC,081958.64,A,6423.05,S,08858.01,W,49.1,334.1,090126,39.0,W*4F
$GPVTG,272.9,T,139.8,M,1.9,N,3.5,K,D*25
$GPVTG,24.8,T,249.1,M,0.0,N,0.1,K,S*00
!AIVDM,1,1,,A,AAAAAAAAAAAAAAAAAAAA,0*26
$GPVTG,129.6,T,296.6,M,14.4,N,26.6,K,S*35
$GPGSA,A,3,20,,,09,03,05,18,32,28,17,19,,4.1,2.3,2.3*36
$GPGSA,A,1,09,18,09,23,20,17,02,06,,,05,18,1.8,2.9,2.1*35
$GPRMC,081958.64,V,7646.08,S,02102.92,W,48.2,217.8,090126,129.0,E*7A
$GPGGA,081958.64,6337.56,S,09153.66,E,3,05,2.8,5043.1,M,-34.3,M,,*65
$GPRMC,081958.64,A,3000.94,N,16614.70,W,38.2,22.0,090126,8.0,E*45
$GPGSA,A,2,26,,07,15,10,08,17,13,17,30,,01,4.2,2.2,2.7*3E
$GPGSA,A,3,10,20,24,24,13,03,32,21,07,26,16,16,4.9,2.1,2.8*35
$GPGGA,081958.64,5056.81,N,05040.71,W,5,07,2.0,9781.7,M,-23.4,M,,*60
$GPGGA,081958.64,3016.58,N,15240.20,W,6,04,1.3,1783.8,M,30.2,M,,*4D
$GPGSA,A,2,21,23,28,,04,16,15,12,18,04,,08,1.7,2.0,0.5*3B
$GPRMC,081958.64,A,2001.03,S,06101.46,W,42.6,107.0,090126,162.9,W*78
$GPGGA,081958.64,2809.85,N,17920.31,W,7,12,1.9,7022.2,M,-26.5,M,,*64
$GPGSA,M,3,15,,25,12,09,,24,,18,18,25,08,2.9,2.1,2.7*33
$GPGSA,M,1,09,15,12,,18,11,11,13,22,32,08,17,4.6,1.7,1.2*31
$GPGSA,M,2,,02,25,20,31,17,31,28,,14,,04,2.6,1.7,0.7*30
$GPGGA,081958.64,0642.79,S,13533.83,W,6,02,1.9,408.9,M,35.4,M,,*64
!AIVDM,1,1,,A,AAAAAAAAAAAAAAAAAAAA,0*26
$GPRMC,081958.64,V,8854.55,N,03510.64,W,27.6,272.8,090126,55.5,W*41
$GPGSA,A,2,31,,32,25,28,15,,,21,03,03,28,1.4,2.7,1.5*34
$GPGSA,M,2,,19,,17,23,,32,,11,,17,01,4.5,2.3,1.7*30
$GPRMC,081958.64,A,8030.12,S,08955.22,E,33.9,28.1,090126,111.2,W*5C
$GPRMC,081958.64,V,4513.38,S,09952.26,E,40.9,92.9,090126,160.2,W*42
$GPVTG,18.2,T,122.3,M,33.7,N,62.3,K,M*16
$GPVTG,276.2,T,202.2,M,48.1,N,89.1,K,D*28
$GPRMC,081958.64,V,8809.77,S,02304.04,W,42.6,163.0,090126,40.1,W*58
$GPGGA,081958.64,3107.80,S,09134.99,W,6,03,2.1,2250.0,M,-8.3,M,,*4A
$GPGGA,081958.64,1318.52,N,09314.74,E,4,08,2.5,2013.5,M,-3.5,M,,*47
$GPVTG,11.8,T,263.4,M,45.7,N,84.5,K,M*1B
!AIVDM,1,1,,A,AAAAAAAAAAAAAAAAAAAA,0*26
$GPGSA,M,3,,,25,23,09,09,05,27,06,21,30,05,2.7,0.9,2.0*35
$GPGSA,A,1,,01,19,27,31,,22,22,17,04,24,24,2.3,0.8,2.9*3E
$GPGGA,081958.64,1219.40,N,16640.05,E,3,10,1.5,1334.8,M,6.6,M,,*66
$GPVTG,12.9,T,78.8,M,29.2,N,54.0,K,M*2A
$GPRMC,081958.64,A,2547.44,N,08110.45,E,14.3,164.0,090126,40.2,W*47
!AIVDM,1,1,,A,AAAAAAAAAAAAAAAAAAAA,0*26
$GPGGA,081958.64,7010.55,N,03312.36,W,6,06,1.9,1809.1,M,47.2,M,,*48
$GPGSA,A,1,28,25,,25,30,22,02,32,,,,30,0.9,1.4,2.9*3E
$GPGSA,M,2,,01,12,05,25,27,27,,29,25,18,02,3.4,2.8,2.2*35
$GPGGA,081958.64,7203.08,N,17256.53,W,0,12,1.2,4821.2,M,-20.5,M,,*68
$GPGGA,081958.64,5724.35,S,18047.41,E,7,06,2.2,8790.9,M,6.9,M,,*73
$GPGGA,081958.64,1945.76,N,17921.26,W,6,01,1.9,7739.2,M,-20.3,M,,*6B
$GPGGA,081958.64,1142.00,N,10827.17,W,6,10,1.2,1556.0,M,-34.5,M,,*60
$GPVTG,258.0,T,324.0,M,46.5,N,86.0,K,M*2C
$GPVTG,242.5,T,193.7,M,11.5,N,21.3,K,E*2F
$GPGGA,081958.64,2546.08,N,10655.39,E,5,11,2.3,4137.4,M,-6.5,M,,*4D
$GPGSA,A,1,07,,25,09,02,10,29,10,21,02,,12,5.0,2.1,1.5*30
$GPRMC,081958.64,A,0856.35,N,08124.77,W,36.5,276.5,090126,107.4,E*7F
$GPRMC,081958.64,V,8243.07,N,09849.82,E,5.3,2.5,090126,13.9,E*7A
!AIVDM,1,1,,A,AAAAAAAAAAAAAAAAAAAA,0*26
$GPGGA,081958.64,4259.40,N,17702.91,W,5,03,2.2,4285.9,M,43.0,M,,*46
$GPGSA,M,1,15,30,10,19,,32,10,14,23,24,14,25,2.2,1.5,3.0*35
$GPGSA,M,1,02,01,,26,04,23,14,04,31,01,31,30,2.6,1.4,1.4*39
$GPVTG,265.8,T,31.2,M,13.2,N,24.4,K,A*18
$GPRMC,081958.64,A,5516.39,N,09412.54,W,47.5,128.8,090126,156.7,W*69
$GPGSA,A,1,,,05,23,22,12,05,25,,22,09,01,4.9,0.7,2.6*33
$GPRMC,081958.64,V,1326.04,N,05235.06,E,11.3,94.1,090126,2.2,W*54
$GPVTG,136.1,T,9.0,M,48.0,N,89.0,K,N*2D
$GPGSA,M,3,06,23,10,18,23,22,,09,17,05,05,04,3.3,2.8,1.8*38
$GPGGA,081958.64,2923.07,S,05320.14,W,3,06,1.6,1310.0,M,-6.4,M,,*4F
$GPVTG,19.0,T,64.5,M,26.6,N,49.2,K,S*33
!AIVDM,1,1,,A,AAAAAAAAAAAAAAAAAAAA,0*26
$GPGSA,M,1,24,09,09,21,25,16,03,,,23,,01,1.1,0.9,2.4*35
$GPGSA,M,3,10,10,31,01,01,,24,12,,32,30,22,0.8,1.0,2.4*34
$GPVTG,325.6,T,233.2,M,16.5,N,30.5,K,A*25
$GPRMC,081958.64,A,5907.30,N,09040.57,E,8.3,23.8,090126,169.8,E*68
$GPVTG,324.5,T,256.6,M,25.6,N,47.4,K,E*26
$GPVTG,125.1,T,338.8,M,18.6,N,34.4,K,D*2D
!AIVDM,1,1,,A,AAAAAAAAAAAAAAAAAAAA,0*26
$GPRMC,081958.64,A,8115.36,N,13732.59,E,30.8,16.7,090126,115.1,W*46
!AIVDM,1,1,,A,AAAAAAAAAAAAAAAAAAAA,0*26
$GPGGA,081958.64,8011.13,N,11353.46,E,7,03,1.5,7737.9,M,19.8,M,,*52
$GPGSA,M,1,28,16,25,32,,07,16,16,,11,11,32,1.2,2.4,1.9*3C
$GPVTG,4.9,T,24.8,M,1.9,N,3.6,K,A*1D
!AIVDM,1,1,,A,AAAAAAAAAAAAAAAAAAAA,0*26
$GPGSA,A,3,20,32,31,32,22,,21,07,,15,,13,2.1,2.2,0.9*3A
!AIVDM,1,1,,A,AAAAAAAAAAAAAAAAAAAA,0*26
$GPGGA,081958.64,0532.42,N,06237.67,W,7,01,2.1,568.8,M,-8.9,M,,*69
$GPGSA,A,2,02,19,01,08,03,07,,09,07,28,03,22,0.9,2.6,0.9*37
$GPGSA,A,2,,,,24,,18,08,09,14,13,32,,3.4,1.8,2.9*3E
$GPGGA,081958.64,5644.01,S,16727.42,E,4,11,1.4,1673.3,M,18.9,M,,*4F
$GPRMC,081958.64,V,3506.26,S,13728.68,W,18.2,237.6,090126,70.0,E*4A
!AIVDM,1,1,,A,AAAAAAAAAAAAAAAAAAAA,0*26
!AIVDM,1,1,,A,AAAAAAAAAAAAAAAAAAAA,0*26
!AIVDM,1,1,,A,AAAAAAAAAAAAAAAAAAAA,0*26
$GPVTG,241.8,T,22.6,M,45.1,N,83.6,K,E*13
$GPGGA,081958.64,6134.72,S,09636.42,W,3,10,2.4,9626.1,M,35.9,M,,*55
!AIVDM,1,1,,A,AAAAAAAAAAAAAAAAAAAA,0*26
$GPGGA,081958.64,0946.10,S,06313.44,E,3,00,1.3,6745.1,M,0.8,M,,*7A
!AIVDM,1,1,,A,AAAAAAAAAAAAAAAAAAAA,0*26
$GPGGA,081958.64,7743.09,N,00938.17,W,1,09,0.7,8377.2,M,15.1,M,,*49
$GPGSA,A,2,24,16,21,04,18,,30,22,,21,,01,3.3,2.5,0.7*3D
!AIVDM,1,1,,A,AAAAAAAAAAAAAAAAAAAA,0*26
$GPVTG,247.3,T,269.4,M,7.8,N,14.4,K,D*13
$GPGGA,081958.64,5212.96,N,16532.74,W,4,11,1.3,2150.8,M,-1.3,M,,*5C
$GPVTG,308.2,T,232.0,M,4.6,N,8.5,K,S*34
!AIVDM,1,1,,A,AAAAAAAAAAAAAAAAAAAA,0*26
$GPGGA,081958.64,8329.76,N,07524.74,E,2,09,2.7,-13.3,M,9.2,M,,*4D
!AIVDM,1,1,,A,AAAAAAAAAAAAAAAAAAAA,0*26
!AIVDM,1,1,,A,AAAAAAAAAAAAAAAAAAAA,0*26
$GPVTG,97.6,T,81.2,M,8.6,N,15.9,K,E*17
$GPVTG,348.3,T,267.0,M,17.4,N,32.3,K,N*23
$GPGGA,081958.64,4741.23,S,11309.10,E,8,02,1.6,2421.5,M,-13.2,M,,*63
$GPVTG,299.2,T,131.5,M,49.9,N,92.4,K,S*3C
!AIVDM,1,1,,A,AAAAAAAAAAAAAAAAAAAA,0*26
$GPGSA,A,3,02,,08,27,11,13,04,25,27,17,21,09,3.6,2.3,2.3*30
$GPGSA,M,2,12,25,23,14,01,14,10,21,17,31,21,17,4.8,1.0,2.7*30
$GPVTG,210.2,T,181.9,M,8.5,N,15.7,K,N*12
$GPGGA,081958.64,8214.17,N,17758.77,E,5,09,0.9,443.7,M,21.4,M,,*61
$GPGGA,081958.64,8239.36,N,16743.74,W,8,01,0.9,2536.3,M,13.4,M,,*46
!AIVDM,1,1,,A,AAAAAAAAAAAAAAAAAAAA,0*26
$GPGSA,A,3,22,26,21,19,,21,27,30,03,30,,02,4.4,1.0,2.9*30
!AIVDM,1,1,,A,AAAAAAAAAAAAAAAAAAAA,0*26
$GPRMC,081958.64,V,3842.20,S,16026.51,E,24.2,190.6,090126,132.1,W*70
$GPRMC,081958.64,V,6504.36,S,17616.15,W,49.0,110.0,090126,78.0,W*52
$GPGGA,081958.64,2917.78,S,00401.14,E,7,06,1.5,5490.9,M,18.9,M,,*49
$GPGSA,M,3,25,,01,,24,17,24,10,27,12,11,31,1.6,2.5,1.4*3E
$GPRMC,081958.64,A,0827.55,S,13640.86,E,20.1,344.2,090126,137.7,W*67
$GPVTG,233.4,T,46.0,M,38.1,N,70.5,K,E*1B
$GPGSA,A,2,,07,05,16,27,05,19,27,05,,07,,2.2,0.8,2.0*33
!AIVDM,1,1,,A,AAAAAAAAAAAAAAAAAAAA,0*26
$GPGSA,M,1,22,02,05,32,,23,,20,,27,26,30,1.2,1.5,2.6*38
$GPGSA,A,1,17,26,22,05,31,16,30,20,,05,01,14,4.1,2.6,1.0*32
$GPGSA,M,2,24,27,25,,04,17,09,,10,,11,27,3.8,1.6,2.7*3D
$GPRMC,081958.64,V,1932.06,N,01454.28,E,23.1,11.6,090126,31.9,E*70
$GPGSA,A,1,15,,23,13,18,06,32,,16,20,27,26,4.0,0.9,1.4*35
$GPRMC,081958.64,V,6536.15,N,10031.24,E,0.9,226.6,090126,7.5,W*52
$GPRMC,081958.64,A,4843.18,S,13756.33,E,30.9,176.3,090126,49.5,E*43
$GPVTG,102.0,T,236.7,M,15.0,N,27.8,K,N*26
!AIVDM,1,1,,A,AAAAAAAAAAAAAAAAAAAA,0*26
$GPRMC,081958.64,A,7740.00,N,14111.42,W,38.6,43.4,090126,172.5,W*52
$GPRMC,081958.64,A,5752.46,S,03751.07,W,39.8,247.8,090126,71.0,E*59
$GPRMC,081958.64,A,6558.59,S,11553.76,E,19.6,120.0,090126,7.6,W*68
!AIVDM,1,1,,A,AAAAAAAAAAAAAAAAAAAA,0*26
$GPGSA,A,2,09,19,,24,26,19,28,11,11,30,32,20,3.2,2.5,2.8*3E
$GPGSA,A,2,15,22,12,26,22,11,04,12,08,11,29,,4.0,1.2,0.9*3A
$GPGGA,081958.64,7609.01,S,10320.90,E,8,09,2.6,3106.6,M,28.7,M,,*45
$GPRMC,081958.64,V,0427.90,S,00340.21,E,48.8,162.0,090126,123.7,W*79
!AIVDM,1,1,,A,AAAAAAAAAAAAAAAAAAAA,0*26
!AIVDM,1,1,,A,AAAAAAAAAAAAAAAAAAAA,0*26
!AIVDM,1,1,,A,AAAAAAAAAAAAAAAAAAAA,0*26
$GPGSA,A,3,08,17,29,09,19,30,,30,,01,02,19,3.9,0.7,1.1*30
$GPRMC,081958.64,A,1644.28,S,02900.63,W,36.1,78.5,090126,77.6,E*6F
$GPRMC,081958.64,A,1932.67,N,16331.49,W,3.2,194.1,090126,149.9,E*43
$GPVTG,324.6,T,109.8,M,48.7,N,90.1,K,A*23
!AIVDM,1,1,,A,AAAAAAAAAAAAAAAAAAAA,0*26
$GPRMC,081958.64,V,3306.35,S,01654.18,E,13.1,124.2,090126,18.7,E*56
$GPGSA,A,2,06,24,22,18,28,,,15,30,,,30,4.4,1.1,0.8*3C
!AIVDM,1,1,,A,AAAAAAAAAAAAAAAAAAAA,0*26
$GPGGA,081958.64,4642.74,N,09828.90,W,7,06,1.5,2869.3,M,-35.8,M,,*65
$GPVTG,74.7,T,241.2,M,24.5,N,45.4,K,M*18
!AIVDM,1,1,,A,AAAAAAAAAAAAAAAAAAAA,0*26
$GPGSA,A,2,,,08,,31,05,01,21,24,21,,16,2.5,2.7,1.1*3E
!AIVDM,1,1,,A,AAAAAAAAAAAAAAAAAAAA,0*26
!AIVDM,1,1,,A,AAAAAAAAAAAAAAAAAAAA,0*26
$GPGSA,M,3,11,10,10,06,31,22,17,,01,03,12,22,2.9,1.0,1.6*30
!AIVDM,1,1,,A,AAAAAAAAAAAAAAAAAAAA,0*26
$GPGGA,081958.64,3621.81,N,10354.20,E,2,02,2.5,3523.0,M,-29.4,M,,*7E
$GPGSA,M,2,20,,12,26,14,22,23,,21,14,28,,3.4,1.5,1.3*33
$GPGGA,081958.64,4859.68,S,17429.25,E,1,08,2.2,5147.0,M,7.9,M,,*7F
$GPRMC,081958.64,V,5003.33,N,00320.80,E,7.7,299.6,090126,177.2,W*56
$GPVTG,309.7,T,312.5,M,23.3,N,43.2,K,N*23
$GPGGA,081958.64,1331.86,N,05519.78,W,6,02,2.6,7171.0,M,-2.5,M,,*53
$GPGSA,M,2,12,14,11,04,16,20,12,17,24,25,,13,2.8,2.5,1.0*32
$GPGGA,081958.64,4325.33,S,02550.61,W,5,11,2.1,1132.8,M,-19.6,M,,*74
$GPRMC,081958.64,V,2431.89,S,08525.14,W,45.8,30.2,090126,153.7,W*53
$GPGSA,A,3,04,12,11,22,02,22,31,08,23,24,,16,2.3,2.8,0.7*31
$GPGGA,081958.64,8625.37,S,10359.48,E,2,01,1.1,829.5,M,-43.6,M,,*59
!AIVDM,1,1,,A,AAAAAAAAAAAAAAAAAAAA,0*26
$GPRMC,081958.64,V,0127.34,N,15714.42,E,30.8,6.0,090126,62.3,W*57
$GPGSA,M,3,,26,,27,25,07,22,,27,20,30,01,0.7,1.4,1.2*3B
$GPGSA,M,3,20,,30,14,09,06,14,21,04,05,10,,3.8,1.0,0.7*3E
$GPRMC,081958.64,A,2340.61,N,09737.83,W,43.1,325.3,090126,54.6,E*4C
$GPGGA,081958.64,3826.07,N,16105.31,E,3,05,2.8,1582.7,M,-1.2,M,,*40
!AIVDM,1,1,,A,AAAAAAAAAAAAAAAAAAAA,0*26
$GPGGA,081958.64,3032.59,N,06127.65,E,4,05,2.3,2486.4,M,-43.1,M,,*7A
$GPGSA,M,3,07,16,29,02,20,16,13,09,05,23,06,02,1.3,2.0,1.9*31
$GPVTG,357.9,T,296.0,M,38.8,N,71.9,K,E*2E
$GPRMC,081958.64,A,5542.34,N,03404.39,W,18.4,72.0,090126,4.6,E*4B
!AIVDM,1,1,,A,AAAAAAAAAAAAAAAAAAAA,0*26
$GPRMC,081958.64,V,6919.98,S,11914.72,E,23.0,106.2,090126,90.9,E*5A
$GPGGA,081958.64,5943.52,N,08541.66,E,1,06,1.4,3600.1,M,-7.5,M,,*4F
$GPGGA,081958.64,6436.49,N,02433.61,E,8,10,2.4,4598.3,M,-19.3,M,,*73
$GPGSA,A,1,,28,,10,15,22,27,,,,26,24,4.6,2.5,0.7*3A
$GPVTG,323.6,T,356.3,M,48.7,N,90.3,K,S*37
$GPVTG,264.8,T,279.7,M,32.8,N,60.7,K,E*2C
$GPVTG,130.9,T,60.8,M,40.9,N,75.7,K,M*12
$GPGSA,A,2,23,,04,,12,20,23,,02,18,18,04,2.2,2.3,1.5*35
$GPGGA,081958.64,7611.73,S,09613.39,W,4,11,0.5,5953.4,M,-17.1,M,,*7A
$GPGSA,A,1,07,,16,02,32,01,04,30,24,,10,26,4.1,0.7,0.9*3D
$GPGSA,A,2,23,30,13,03,,10,03,14,,22,01,12,4.6,1.3,2.1*36
$GPGGA,081958.64,6946.91,S,14133.62,E,4,07,1.7,5161.3,M,-49.4,M,,*6B
$GPGSA,M,1,,26,28,19,02,25,12,32,10,02,20,04,4.3,1.7,1.0*38
!AIVDM,1,1,,A,AAAAAAAAAAAAAAAAAAAA,0*26
$GPRMC,081958.64,A,8347.01,S,02550.77,W,18.9,109.3,090126,129.6,W*7A
$GPGSA,A,1,19,12,12,26,27,28,03,20,14,08,,17,4.0,1.9,2.9*3E
$GPVTG,294.7,T,61.9,M,20.7,N,38.4,K,N*10
!AIVDM,1,1,,A,AAAAAAAAAAAAAAAAAAAA,0*26
$GPGGA,081958.64,7022.24,N,11903.72,W,3,09,1.9,2242.9,M,-44.2,M,,*6C
!AIVDM,1,1,,A,AAAAAAAAAAAAAAAAAAAA,0*26
!AIVDM,1,1,,A,AAAAAAAAAAAAAAAAAAAA,0*26
$GPGSA,M,1,28,04,,28,10,22,14,,05,17,,01,3.7,2.3,1.3*39
$GPGSA,A,1,03,,12,12,21,,03,,,01,11,22,4.2,0.8,1.3*3E
$GPGSA,A,3,21,04,04,12,31,27,,14,22,30,,14,2.4,2.0,2.3*33
!AIVDM,1,1,,A,AAAAAAAAAAAAAAAAAAAA,0*26
$GPRMC,081958.64,V,0147.72,N,14034.09,W,19.5,296.4,090126,99.5,W*41
!AIVDM,1,1,,A,AAAAAAAAAAAAAAAAAAAA,0*26
$GPGSA,M,1,,,06,26,26,20,02,06,06,26,03,14,4.3,2.7,1.9*32
$GPGGA,081958.64,8123.90,S,00825.20,E,4,02,2.8,8472.4,M,21.3,M,,*42
$GPRMC,081958.64,A,3502.58,S,10002.06,E,44.6,351.6,090126,126.4,E*7C
!AIVDM,1,1,,A,AAAAAAAAAAAAAAAAAAAA,0*26
$GPGSA,A,3,04,24,17,10,19,16,,09,24,18,08,22,1.9,2.8,1.7*32
$GPGGA,081958.64,4842.90,S,09553.63,W,3,11,1.8,9142.3,M,34.6,M,,*57
$GPGSA,M,3,30,08,24,06,,29,08,03,02,20,02,13,1.6,1.7,1.2*37
$GPRMC,081958.64,V,6919.02,N,07522.00,E,34.1,320.0,090126,72.6,W*5D
$GPVTG,303.8,T,177.4,M,5.2,N,9.7,K,D*22
$GPGGA,081958.64,1540.62,S,16030.30,E,6,09,1.8,993.7,M,-13.1,M,,*50
$GPGGA,081958.64,6212.34,N,05855.31,E,7,08,0.9,1946.7,M,-15.4,M,,*7B
$GPGGA,081958.64,1700.64,S,06535.59,W,7,08,1.7,4725.2,M,-46.3,M,,*73
$GPRMC,081958.64,V,3839.24,N,03014.52,E,3.1,38.9,090126,52.6,E*4B
$GPGSA,A,1,28,17,20,09,30,22,20,05,15,21,,18,4.4,2.7,2.7*3D
!AIVDM,1,1,,A,AAAAAAAAAAAAAAAAAAAA,0*26
$GPRMC,081958.64,A,5314.74,S,15646.92,W,47.5,75.9,090126,36.0,E*67
$GPGGA,081958.64,3907.43,N,16252.36,E,8,06,1.7,760.6,M,40.5,M,,*61
$GPGGA,081958.64,1447.14,S,01708.52,W,0,08,1.3,2541.3,M,1.9,M,,*64
!AIVDM,1,1,,A,AAAAAAAAAAAAAAAAAAAA,0*26
$GPRMC,081958.64,V,1456.13,N,16705.94,W,22.7,98.7,090126,101.8,W*49
$GPGGA,081958.64,5757.96,S,13346.32,W,0,10,2.7,7126.5,M,19.1,M,,*5A
$GPGGA,081958.64,2612.83,N,16228.79,E,6,12,0.8,9939.8,M,9.2,M,,*6B
$GPRMC,081958.64,A,6247.28,S,17254.34,E,41.9,170.9,090126,9.8,E*7B
$GPGSA,M,3,05,17,25,,03,31,26,,28,21,13,16,2.4,1.2,1.2*35
!AIVDM,1,1,,A,AAAAAAAAAAAAAAAAAAAA,0*26
$GPGSA,A,1,22,21,,,06,05,05,,15,10,01,05,3.7,0.9,1.6*3E
$GPGGA,081958.64,1012.23,S,13407.15,E,2,05,2.9,799.1,M,46.4,M,,*75
$GPVTG,218.0,T,264.9,M,9.7,N,17.9,K,A*10
$GPRMC,081958.64,V,7405.18,S,11935.30,E,36.4,129.1,090126,23.3,W*48
$GPGGA,081958.64,0859.73,N,16025.55,W,3,08,0.5,4247.5,M,8.7,M,,*71
$GPGSA,A,2,25,13,10,13,,29,,23,,15,,21,2.5,3.0,2.6*38
$GPGSA,M,2,09,,,23,21,08,31,,04,03,13,15,4.1,1.9,1.4*37
$GPGSA,A,1,,26,05,11,,,,16,32,06,,28,0.9,2.7,1.7*31
$GPRMC,081958.64,A,3546.42,S,12159.64,E,18.0,164.4,090126,168.0,E*79
!AIVDM,1,1,,A,AAAAAAAAAAAAAAAAAAAA,0*26
$GPGSA,A,3,05,,16,01,03,20,06,19,25,11,09,,1.8,0.9,2.3*31
$GPVTG,320.5,T,56.7,M,43.5,N,80.6,K,S*0D
$GPGGA,081958.64,7548.16,S,14445.66,E,4,02,1.6,8633.5,M,-26.0,M,,*65
!AIVDM,1,1,,A,AAAAAAAAAAAAAAAAAAAA,0*26
$GPGGA,081958.64,5427.69,S,00042.94,E,5,06,1.9,378.0,M,3.0,M,,*4B
$GPGGA,081958.64,6542.32,S,05702.30,E,5,05,1.0,7053.0,M,17.8,M,,*46
$GPGSA,A,2,04,22,,15,02,11,,14,12,10,25,,0.8,2.2,1.4*3C
!AIVDM,1,1,,A,AAAAAAAAAAAAAAAAAAAA,0*26
$GPGSA,M,1,10,24,09,,31,17,18,,31,,,19,1.6,0.6,3.0*37
!AIVDM,1,1,,A,AAAAAAAAAAAAAAAAAAAA,0*26
$GPGSA,M,1,30,,,20,09,,10,,,05,20,02,0.9,2.7,1.9*34
$GPVTG,12.9,T,113.8,M,42.4,N,78.6,K,M*15
$GPVTG,283.5,T,32.0,M,32.7,N,60.6,K,D*1D
$GPVTG,247.7,T,2.1,M,19.5,N,36.0,K,S*3C
$GPVTG,182.1,T,141.3,M,26.2,N,48.5,K,N*2E
$GPVTG,144.3,T,331.5,M,32.1,N,59.5,K,A*2C
$GPGGA,081958.64,5033.62,N,06047.73,W,2,03,2.2,2250.6,M,-18.6,M,,*60
$GPGGA,081958.64,2035.52,N,03230.16,W,7,05,2.9,6542.6,M,-25.4,M,,*62
$GPGGA,081958.64,3414.17,S,09121.12,E,5,04,0.6,6960.9,M,43.8,M,,*4B
$GPVTG,182.3,T,33.0,M,1.3,N,2.4,K,N*10
$GPGSA,A,2,12,,19,21,29,20,,07,30,29,26,16,2.5,0.5,1.5*38
$GPGGA,081958.64,1727.38,S,08846.95,W,2,00,1.0,8069.4,M,-21.8,M,,*7D
$GPGGA,081958.64,0217.47,N,14006.01,E,3,07,1.3,3059.0,M,-44.0,M,,*73
$GPVTG,46.6,T,105.2,M,38.4,N,71.1,K,E*1D
$GPGGA,081958.64,2954.26,N,10702.71,W,0,10,2.1,7305.2,M,-10.8,M,,*69
$GPGGA,081958.64,6339.84,S,16207.92,W,8,00,1.6,2714.4,M,14.1,M,,*58
$GPGSA,A,1,,15,11,24,25,15,09,21,28,27,,10,1.4,0.9,0.5*3C
!AIVDM,1,1,,A,AAAAAAAAAAAAAAAAAAAA,0*26
$GPGGA,081958.64,0736.07,N,03337.92,E,0,05,2.5,3205.9,M,47.6,M,,*52
$GPGSA,A,3,21,19,22,13,27,07,28,07,02,26,10,06,3.5,0.5,2.6*32
$GPRMC,081958.64,A,3548.25,S,06415.80,E,42.7,216.3,090126,62.1,W*55
$GPGSA,M,3,30,22,04,18,30,22,14,06,,17,32,11,3.8,1.2,2.2*3F
$GPGGA,081958.64,5754.60,S,11929.80,E,8,00,1.3,601.8,M,-38.4,M,,*57
$GPRMC,081958.64,A,4431.94,N,00757.70,W,23.9,329.8,090126,19.7,W*51
$GPGGA,081958.64,7100.89,N,14222.27,E,6,09,2.5,8452.7,M,-14.8,M,,*73
$GPRMC,081958.64,V,0513.06,S,10316.72,E,39.8,82.2,090126,103.0,E*58
$GPVTG,127.1,T,150.9,M,41.8,N,77.5,K,S*31
!AIVDM,1,1,,A,AAAAAAAAAAAAAAAAAAAA,0*26
$GPGSA,A,3,13,24,32,13,25,15,20,31,12,,,13,0.5,2.2,2.4*34
$GPGSA,M,3,23,11,10,32,13,32,,,21,13,03,02,3.0,0.7,2.4*3E
$GPGSA,A,2,,17,13,27,05,15,06,04,07,,,20,4.3,1.3,2.1*32
$GPGGA,081958.64,2024.57,S,05142.64,W,2,09,1.6,1023.1,M,-11.2,M,,*79
!AIVDM,1,1,,A,AAAAAAAAAAAAAAAAAAAA,0*26
!AIVDM,1,1,,A,AAAAAAAAAAAAAAAAAAAA,0*26
$GPVTG,238.8,T,273.1,M,18.8,N,34.8,K,S*39
$GPGSA,M,1,05,25,04,,18,03,,20,,18,10,25,3.5,2.2,2.5*3C
!AIVDM,1,1,,A,AAAAAAAAAAAAAAAAAAAA,0*26
$GPGGA,081958.64,5538.96,N,06143.43,E,5,01,2.3,9907.9,M,-18.5,M,,*7B
$GPRMC,081958.64,V,6731.55,N,05647.66,E,44.9,83.5,090126,139.1,W*50
$GPGSA,A,3,,13,07,16,28,11,09,,20,09,22,,5.0,2.0,1.0*3E
$GPGSA,M,2,,27,16,,05,02,16,28,23,15,12,01,4.4,0.6,1.9*3E
$GPRMC,081958.64,A,8941.81,S,05630.59,W,13.1,258.1,090126,169.0,E*66
!AIVDM,1,1,,A,AAAAAAAAAAAAAAAAAAAA,0*26
$GPRMC,081958.64,A,8656.00,N,08315.02,W,45.7,317.5,090126,159.7,E*75
$GPVTG,232.3,T,333.1,M,10.5,N,19.5,K,M*24
$GPGSA,A,3,,17,02,22,17,03,10,20,09,05,06,,4.4,1.5,1.5*3A
$GPGGA,081958.64,7044.11,S,10058.20,W,1,12,2.0,7774.4,M,-26.2,M,,*78
$GPRMC,081958.64,V,0818.48,N,01650.52,W,29.3,208.0,090126,114.1,W*73
$GPRMC,081958.64,V,2514.48,S,06430.94,W,41.1,152.9,090126,77.8,E*42
!AIVDM,1,1,,A,AAAAAAAAAAAAAAAAAAAA,0*26
$GPVTG,0.9,T,334.7,M,19.4,N,36.0,K,E*24
$GPGSA,A,2,20,08,02,18,,29,,15,05,30,17,,2.2,2.8,1.9*3F
$GPVTG,25.1,T,42.6,M,5.2,N,9.7,K,A*2C
$GPVTG,351.4,T,278.6,M,34.6,N,64.1,K,M*25
$GPVTG,192.8,T,39.3,M,33.3,N,61.6,K,M*16
$GPGSA,A,2,15,17,10,25,05,23,06,,11,,,09,0.6,2.2,1.6*3D
$GPGSA,A,2,18,01,04,31,14,,,,26,07,07,,1.7,1.3,1.1*38
$GPVTG,159.2,T,2.1,M,5.9,N,10.9,K,S*09
$GPVTG,110.1,T,243.6,M,5.1,N,9.4,K,D*2D
$GPRMC,081958.64,V,4528.48,S,13525.73,E,49.0,213.4,090126,70.3,E*5F
$GPGGA,081958.64,2217.36,N,13647.85,E,3,06,1.8,9512.2,M,48.7,M,,*51
!AIVDM,1,1,,A,AAAAAAAAAAAAAAAAAAAA,0*26
$GPRMC,081958.64,V,5505.43,N,11245.30,W,37.5,198.1,090126,172.9,E*61
$GPGGA,081958.64,0525.73,N,13231.52,W,0,07,0.7,3850.5,M,-12.3,M,,*65
$GPRMC,081958.64,V,8602.71,N,04319.57,W,2.6,76.0,090126,177.3,E*6E
$GPGSA,A,3,32,,,17,05,,,23,29,13,27,09,2.9,2.4,2.1*3A
$GPVTG,12.1,T,271.7,M,10.9,N,20.2,K,M*16
$GPGGA,081958.64,1601.22,N,02242.88,W,1,06,0.5,2662.6,M,11.1,M,,*45
$GPGSA,M,2,26,24,07,02,03,24,23,29,29,,01,25,4.1,2.0,0.5*38
!AIVDM,1,1,,A,AAAAAAAAAAAAAAAAAAAA,0*26
$GPGGA,081958.64,8000.67,N,00111.69,E,1,07,0.7,6501.8,M,-2.1,M,,*40
$GPGSA,A,1,32,29,32,20,32,,22,01,09,21,,,4.3,2.4,2.3*33
$GPRMC,081958.64,A,2450.55,N,05243.43,W,2.0,266.8,090126,14.5,E*75
$GPGGA,081958.64,3253.22,S,04204.23,W,3,10,1.1,8962.8,M,7.7,M,,*66
$GPGSA,A,3,19,18,22,23,08,05,27,11,28,23,,32,4.1,2.6,0.5*34
$GPGSA,M,2,27,07,21,05,09,09,25,02,23,15,25,20,5.0,2.3,2.5*3D
$GPRMC,081958.64,A,1141.38,N,06337.66,W,33.8,219.2,090126,64.5,E*41
!AIVDM,1,1,,A,AAAAAAAAAAAAAAAAAAAA,0*26
$GPVTG,330.2,T,220.9,M,37.8,N,69.9,K,A*22
!AIVDM,1,1,,A,AAAAAAAAAAAAAAAAAAAA,0*26
$GPVTG,316.8,T,238.9,M,30.0,N,55.6,K,S*38
$GPVTG,251.2,T,21.7,M,10.1,N,18.8,K,S*00
$GPGSA,A,2,12,30,04,24,,16,04,,21,05,11,13,3.6,2.3,2.4*34
$GPVTG,291.0,T,301.2,M,44.7,N,82.8,K,E*28
$GPVTG,108.5,T,305.6,M,6.2,N,11.5,K,N*11
$GPGSA,M,3,,27,,12,03,02,,10,09,28,29,27,4.5,0.9,0.9*34
$GPGGA,081958.64,3229.25,N,17008.39,E,2,06,2.0,7245.2,M,-42.9,M,,*79
!AIVDM,1,1,,A,AAAAAAAAAAAAAAAAAAAA,0*26
!AIVDM,1,1,,A,AAAAAAAAAAAAAAAAAAAA,0*26
$GPGSA,M,1,06,31,25,,09,07,,,04,,32,18,2.0,0.8,1.1*37
$GPGSA,M,2,05,,01,31,24,27,05,25,04,,32,02,3.0,2.2,2.7*39
!AIVDM,1,1,,A,AAAAAAAAAAAAAAAAAAAA,0*26
!AIVDM,1,1,,A,AAAAAAAAAAAAAAAAAAAA,0*26
$GPGGA,081958.64,5003.07,N,04300.57,W,0,02,0.8,6903.6,M,-11.3,M,,*6A
$GPGGA,081958.64,0209.66,S,08339.53,W,7,08,1.7,4779.2,M,-19.7,M,,*75
$GPGGA,081958.64,3554.85,S,04546.83,W,0,00,1.6,1432.5,M,8.9,M,,*68
$GPGGA,081958.64,0259.95,S,01509.08,W,4,02,1.0,332.9,M,-21.7,M,,*4F
$GPRMC,081958.64,A,3712.79,S,10934.69,E,48.1,254.7,090126,91.1,E*4F
!AIVDM,1,1,,A,AAAAAAAAAAAAAAAAAAAA,0*26
$GPRMC,081958.64,V,7332.91,N,01603.89,W,10.3,288.8,090126,31.5,E*59
$GPGGA,081958.64,7318.20,N,17118.26,W,2,08,1.3,8602.3,M,2.9,M,,*79
!AIVDM,1,1,,A,AAAAAAAAAAAAAAAAAAAA,0*26
$GPVTG,252.4,T,109.6,M,41.4,N,76.8,K,S*36
$GPGSA,M,1,06,25,,11,09,05,02,03,,20,05,,3.7,1.7,2.3*34
$GPVTG,96.5,T,77.3,M,48.7,N,90.3,K,S*39
$GPRMC,081958.64,A,9053.23,S,02701.04,W,26.2,177.4,090126,151.5,E*69
$GPRMC,081958.64,A,1821.25,N,07102.58,E,20.4,172.1,090126,12.0,E*5F
$GPVTG,173.6,T,222.9,M,30.5,N,56.5,K,D*2E
$GPVTG,152.4,T,29.2,M,43.6,N,80.8,K,N*16
$GPGSA,M,3,31,,26,26,14,,,07,32,31,,15,4.7,1.2,1.5*3D
$GPGSA,M,1,,03,22,21,,,,22,09,03,12,11,3.7,0.7,1.6*31
!AIVDM,1,1,,A,AAAAAAAAAAAAAAAAAAAA,0*26
$GPGSA,M,1,25,17,02,02,24,06,25,23,32,19,28,15,0.8,2.4,1.2*31
!AIVDM,1,1,,A,AAAAAAAAAAAAAAAAAAAA,0*26
$GPGGA,081958.64,6210.61,S,11449.07,E,4,10,1.5,8722.5,M,-22.9,M,,*6C
$GPGSA,A,1,,19,25,12,06,01,01,,17,01,24,20,3.6,2.2,1.4*39
$GPGGA,081958.64,6405.78,S,06245.53,E,0,02,1.3,9654.6,M,31.9,M,,*47
!AIVDM,1,1,,A,AAAAAAAAAAAAAAAAAAAA,0*26
$GPGGA,081958.64,8824.76,S,05227.85,W,4,10,1.4,9029.0,M,12.5,M,,*51
$GPRMC,081958.64,V,2424.79,S,17540.18,E,9.7,78.2,090126,157.3,E*62
$GPVTG,282.1,T,343.9,M,27.9,N,51.7,K,D*2D
$GPVTG,182.8,T,133.2,M,33.3,N,61.7,K,S*32
$GPVTG,4.0,T,212.2,M,49.8,N,92.3,K,M*25
$GPGSA,M,2,30,,08,,,32,,11,11,14,04,06,1.9,0.7,1.8*34
$GPVTG,110.1,T,216.4,M,15.0,N,27.7,K,S*37
$GPGGA,081958.64,8107.15,S,00332.77,E,3,07,2.5,737.0,M,-38.6,M,,*57
$GPGSA,A,1,,,15,10,,,25,,07,27,02,,4.4,2.2,0.7*35
!AIVDM,1,1,,A,AAAAAAAAAAAAAAAAAAAA,0*26
$GPGSA,M,3,10,23,04,02,02,31,04,12,14,12,14,24,3.3,1.8,1.5*37
$GPGSA,M,2,14,10,08,04,16,30,28,15,30,29,05,,1.8,2.7,2.1*3F
$GPGSA,M,2,19,,14,15,26,13,01,,02,01,,30,0.9,0.6,0.9*37
$GPVTG,322.6,T,290.1,M,32.9,N,60.9,K,A*2B
$GPGGA,081958.64,3255.25,S,08710.26,W,1,12,2.3,4310.7,M,4.3,M,,*64
$GPRMC,081958.64,A,0540.73,S,14254.77,W,34.5,252.1,090126,175.1,E*63
!AIVDM,1,1,,A,AAAAAAAAAAAAAAAAAAAA,0*26
!AIVDM,1,1,,A,AAAAAAAAAAAAAAAAAAAA,0*26
$GPRMC,081958.64,V,6640.94,N,00617.52,E,20.0,70.3,090126,16.6,E*75
$GPGGA,081958.64,6422.87,S,08209.70,W,0,03,1.6,2768.2,M,48.8,M,,*5D
$GPVTG,269.3,T,36.3,M,33.0,N,61.2,K,S*0C
$GPGSA,M,1,09,29,08,10,32,25,23,28,13,,02,01,0.8,0.8,1.0*3A
$GPGSA,M,1,,,,24,10,13,06,14,15,,28,,1.2,1.6,2.8*3A
!AIVDM,1,1,,A,AAAAAAAAAAAAAAAAAAAA,0*26
!AIVDM,1,1,,A,AAAAAAAAAAAAAAAAAAAA,0*26
$GPVTG,179.2,T,40.9,M,10.7,N,19.8,K,M*19
$GPVTG,215.2,T,282.2,M,5.2,N,9.7,K,M*28
$GPRMC,081958.64,V,5652.83,S,04357.38,E,5.0,28.8,090126,116.7,W*74
$GPGSA,A,3,25,07,17,11,31,27,15,19,18,20,03,27,2.4,0.6,2.1*31
!AIVDM,1,1,,A,AAAAAAAAAAAAAAAAAAAA,0*26
$GPVTG,223.6,T,136.2,M,10.7,N,19.8,K,M*2A
$GPRMC,081958.64,A,2942.79,N,05022.69,E,25.4,347.6,090126,103.6,W*71
$GPGGA,081958.64,2124.66,N,07539.21,W,4,00,2.9,104.2,M,-23.5,M,,*5F
$GPGSA,A,1,17,31,27,19,28,03,,18,18,,07,05,2.3,0.6,1.4*30
!AIVDM,1,1,,A,AAAAAAAAAAAAAAAAAAAA,0*26
$GPRMC,081958.64,A,0244.42,S,04540.34,E,41.3,61.2,090126,161.7,W*50
$GPRMC,081958.64,V,6019.54,N,15918.01,E,10.7,180.1,090126,151.0,E*7D
$GPVTG,189.3,T,96.5,M,25.7,N,47.5,K,A*1C
$GPGSA,M,2,21,05,22,13,12,07,11,,06,01,31,11,3.1,2.6,1.8*35
$GPRMC,081958.64,A,7737.47,N,00935.04,W,23.4,247.9,090126,125.4,E*7A
$GPRMC,081958.64,A,0109.76,S,11459.96,E,16.6,254.8,090126,176.8,E*7A
!AIVDM,1,1,,A,AAAAAAAAAAAAAAAAAAAA,0*26
!AIVDM,1,1,,A,AAAAAAAAAAAAAAAAAAAA,0*26
$GPGGA,081958.64,8131.08,N,07452.69,E,1,11,2.2,2694.2,M,12.7,M,,*54
!AIVDM,1,1,,A,AAAAAAAAAAAAAAAAAAAA,0*26
$GPVTG,122.5,T,275.5,M,31.9,N,59.1,K,D*21
$GPRMC,081958.64,A,3027.91,S,14217.58,E,2.9,295.8,090126,21.4,E*7E
$GPRMC,081958.64,A,2844.82,S,11328.92,W,31.2,203.1,090126,27.4,W*45
$GPVTG,190.1,T,192.9,M,31.7,N,58.8,K,N*26
$GPRMC,081958.64,A,2127.16,S,08356.03,E,9.9,191.1,090126,85.5,W*6E
$GPVTG,41.8,T,327.0,M,18.0,N,33.2,K,E*17
$GPVTG,355.2,T,284.7,M,19.2,N,35.5,K,A*22
$GPGGA,081958.64,1336.12,S,08412.02,W,0,07,2.2,5383.7,M,-9.9,M,,*44
$GPRMC,081958.64,A,2927.56,S,13527.46,W,48.6,34.5,090126,127.4,W*43
$GPGGA,081958.64,5141.64,N,02730.61,W,2,07,0.6,4293.5,M,-3.1,M,,*57
!AIVDM,1,1,,A,AAAAAAAAAAAAAAAAAAAA,0*26
$GPRMC,081958.64,V,0930.59,S,13114.52,E,19.4,124.3,090126,76.0,E*5F
$GPGGA,081958.64,3120.64,S,01713.50,E,4,09,1.9,2020.7,M,-39.5,M,,*6C
$GPVTG,248.2,T,4.4,M,30.9,N,57.1,K,S*34
$GPGGA,081958.64,4153.91,N,04123.74,W,1,11,1.4,7104.1,M,-48.6,M,,*6C
$GPVTG,255.7,T,246.1,M,11.5,N,21.3,K,D*27
$GPRMC,081958.64,A,4750.98,N,10651.04,W,4.9,83.0,090126,105.7,E*7C
$GPGGA,081958.64,7824.96,S,10815.86,W,1,01,2.0,5893.9,M,26.4,M,,*54
$GPGGA,081958.64,0332.97,N,11246.81,E,6,04,0.6,9917.2,M,-0.4,M,,*4E
$GPGSA,M,3,26,12,08,,15,22,,26,21,29,23,,4.1,0.7,1.2*39
$GPVTG,67.4,T,323.9,M,36.2,N,67.0,K,D*1E
$GPGSA,M,2,09,,11,11,27,,27,30,27,27,04,14,1.2,2.7,1.4*37
$GPGGA,081958.64,3840.63,S,14546.03,E,2,06,2.6,7634.0,M,41.5,M,,*42
$GPGGA,081958.64,4221.03,S,06428.90,E,0,07,0.9,6281.6,M,-18.4,M,,*6D
$GPVTG,247.8,T,151.2,M,22.2,N,41.0,K,N*25
$GPRMC,081958.64,V,8544.27,N,05048.18,W,43.9,86.7,090126,132.0,W*43
$GPVTG,176.7,T,353.0,M,13.4,N,24.8,K,A*29
!AIVDM,1,1,,A,AAAAAAAAAAAAAAAAAAAA,0*26
$GPGSA,A,2,26,27,29,,09,05,07,24,01,17,,32,1.9,2.1,2.5*3E
$GPGSA,A,1,04,25,21,29,09,06,11,31,21,,06,17,3.9,0.7,0.9*31
$GPRMC,081958.64,V,6418.59,N,04534.17,W,35.0,347.1,090126,59.4,E*56
$GPGSA,M,3,05,28,22,14,04,29,01,,30,01,32,18,1.0,2.6,0.8*3D
$GPGSA,M,1,14,21,17,08,26,18,04,10,,07,02,,3.1,2.1,1.8*31
!AIVDM,1,1,,A,AAAAAAAAAAAAAAAAAAAA,0*26
$GPVTG,55.0,T,111.9,M,10.5,N,19.5,K,E*16
!AIVDM,1,1,,A,AAAAAAAAAAAAAAAAAAAA,0*26
$GPGGA,081958.64,3548.37,S,01933.84,W,8,10,1.2,2245.5,M,-43.7,M,,*74
$GPGGA,081958.64,3831.53,N,12958.98,E,7,04,0.7,4115.2,M,-21.4,M,,*76
$GPGSA,A,3,08,,,30,19,19,20,03,25,,21,,3.5,0.9,2.7*36
$GPRMC,081958.64,V,8721.15,S,07544.31,W,22.5,187.6,090126,97.6,W*5C
$GPRMC,081958.64,A,2543.42,S,06847.20,E,24.6,286.5,090126,23.2,W*57
$GPGGA,081958.64,8929.29,S,15810.54,E,7,06,1.8,4045.6,M,-40.3,M,,*63
$GPVTG,323.6,T,17.0,M,26.9,N,49.9,K,M*14
$GPRMC,081958.64,V,4506.40,N,08752.25,E,34.3,195.9,090126,135.5,W*60
$GPGGA,081958.64,4512.65,S,10943.33,E,5,02,2.9,4186.0,M,1.6,M,,*71
$GPRMC,081958.64,V,5322.70,S,11258.06,E,14.9,117.6,090126,134.3,E*61
$GPGGA,081958.64,1825.51,N,00220.68,E,4,00,2.7,4220.3,M,6.6,M,,*60
$GPGSA,M,2,14,,11,14,18,10,14,28,08,15,21,22,3.7,1.5,1.6*30
$GPGGA,081958.64,3156.95,N,00504.11,W,6,07,1.8,9171.8,M,-29.2,M,,*66
$GPGGA,081958.64,4809.24,S,07056.51,W,8,11,2.8,5652.4,M,11.5,M,,*59
$GPGSA,A,1,,,,06,14,20,15,19,32,31,04,10,0.7,2.1,1.2*3C
$GPGSA,A,3,30,,20,,06,26,01,11,,06,23,,3.8,0.6,1.2*39
$GPGGA,081958.64,2942.58,S,04524.05,E,2,00,1.4,276.0,M,31.5,M,,*7E
$GPGGA,081958.64,5801.30,S,05503.47,E,8,11,2.0,8897.9,M,-19.9,M,,*61
!AIVDM,1,1,,A,AAAAAAAAAAAAAAAAAAAA,0*26
$GPRMC,081958.64,V,3841.96,S,14717.65,E,35.0,176.6,090126,156.2,E*67
!AIVDM,1,1,,A,AAAAAAAAAAAAAAAAAAAA,0*26
$GPRMC,081958.64,V,5838.67,N,05237.97,E,0.3,57.1,090126,76.3,W*56
!AIVDM,1,1,,A,AAAAAAAAAAAAAAAAAAAA,0*26
$GPVTG,67.6,T,152.9,M,1.1,N,2.1,K,D*1D
$GPVTG,250.2,T,320.7,M,10.7,N,19.9,K,E*23
$GPGSA,M,1,10,16,02,30,22,07,08,02,03,02,04,03,4.0,0.7,2.2*33
$GPGSA,A,1,10,24,,27,01,10,26,24,15,01,,25,2.4,1.0,2.8*3F
!AIVDM,1,1,,A,AAAAAAAAAAAAAAAAAAAA,0*26
$GPVTG,351.2,T,235.6,M,32.7,N,60.6,K,M*2E
$GPRMC,081958.64,A,5838.34,S,11630.65,W,46.2,148.0,090126,48.5,E*57
$GPRMC,081958.64,A,3029.09,S,14140.58,E,24.9,282.5,090126,112.7,W*6F
!AIVDM,1,1,,A,AAAAAAAAAAAAAAAAAAAA,0*26
$GPVTG,17.0,T,147.0,M,10.5,N,19.5,K,M*12
$GPGSA,A,2,32,09,,18,23,,,18,22,21,21,,3.2,2.1,2.2*38
$GPRMC,081958.64,V,5851.33,N,00428.97,W,44.5,71.0,090126,138.4,W*48
$GPRMC,081958.64,V,6711.01,N,15429.37,W,46.5,251.8,090126,18.6,W*45
$GPRMC,081958.64,V,5902.66,S,08121.48,E,29.6,183.7,090126,100.4,E*6C
!AIVDM,1,1,,A,AAAAAAAAAAAAAAAAAAAA,0*26
$GPVTG,267.8,T,163.7,M,15.8,N,29.3,K,E*2B
$GPRMC,081958.64,A,8250.08,S,13248.62,E,37.6,232.2,090126,156.1,W*6B
$GPVTG,12.7,T,110.0,M,33.4,N,61.8,K,E*18
$GPGSA,M,2,28,26,31,13,20,07,29,,13,29,09,13,4.6,1.9,2.8*3D
!AIVDM,1,1,,A,AAAAAAAAAAAAAAAAAAAA,0*26
$GPGGA,081958.64,0725.34,N,01904.52,W,6,02,2.2,433.2,M,-12.6,M,,*56
!AIVDM,1,1,,A,AAAAAAAAAAAAAAAAAAAA,0*26
$GPVTG,265.4,T,297.9,M,7.9,N,14.7,K,M*13
!AIVDM,1,1,,A,AAAAAAAAAAAAAAAAAAAA,0*26
$GPVTG,186.5,T,330.1,M,40.9,N,75.7,K,D*25
$GPVTG,43.7,T,48.4,M,7.7,N,14.3,K,A*1D
$GPGSA,A,2,24,06,,09,32,29,,12,22,17,,,2.0,1.5,2.6*37
!AIVDM,1,1,,A,AAAAAAAAAAAAAAAAAAAA,0*26
$GPGGA,081958.64,6235.43,S,13515.73,W,6,02,1.8,2264.6,M,37.7,M,,*55
$GPGGA,081958.64,1122.01,S,00347.36,E,4,03,2.9,9251.7,M,17.6,M,,*4F
$GPVTG,51.5,T,96.8,M,13.7,N,25.3,K,E*20
$GPGSA,A,3,24,10,20,31,27,19,06,20,02,25,11,27,2.8,2.5,0.7*36
$GPRMC,081958.64,A,7612.56,N,11644.30,E,15.1,90.0,090126,157.5,W*47
$GPGGA,081958.64,0124.94,S,11232.18,W,0,12,2.6,3029.4,M,-41.7,M,,*79
$GPGGA,081958.64,0437.72,S,11818.64,E,6,07,1.9,9352.1,M,-12.9,M,,*6B
$GPVTG,333.0,T,63.5,M,33.3,N,61.7,K,S*01
$GPVTG,220.2,T,344.1,M,24.2,N,44.8,K,M*23
$GPRMC,081958.64,V,8321.76,S,13254.12,E,21.1,346.1,090126,13.5,E*5F
$GPGSA,M,3,12,20,32,18,11,06,27,04,20,,18,01,4.0,0.5,2.0*39
$GPVTG,45.4,T,194.7,M,47.8,N,88.6,K,D*15
$GPGSA,A,3,28,04,10,23,07,17,03,,05,,11,12,3.5,1.5,0.6*3C
$GPRMC,081958.64,V,6233.29,N,11202.05,W,0.1,210.9,090126,93.2,W*75
$GPGSA,A,2,03,02,02,18,31,24,,05,18,01,20,26,0.8,2.5,2.4*3F
$GPGGA,081958.64,7634.08,S,04328.07,E,6,05,1.2,2814.0,M,48.9,M,,*41
$GPVTG,220.7,T,13.3,M,39.5,N,73.1,K,S*0D
$GPRMC,081958.64,V,0316.83,N,11718.28,W,25.5,219.8,090126,65.8,W*4C
!AIVDM,1,1,,A,AAAAAAAAAAAAAAAAAAAA,0*26
!AIVDM,1,1,,A,AAAAAAAAAAAAAAAAAAAA,0*26
$GPGGA,081958.64,1324.09,S,14243.31,W,2,11,2.8,4118.8,M,41.3,M,,*58
$GPVTG,49.3,T,99.3,M,24.0,N,44.5,K,D*28
$GPGSA,M,2,02,25,15,24,11,17,16,,20,20,,12,1.9,2.7,0.6*31
$GPGGA,081958.64,7312.28,S,12400.42,E,6,11,0.9,6625.7,M,-46.9,M,,*6A
!AIVDM,1,1,,A,AAAAAAAAAAAAAAAAAAAA,0*26
!AIVDM,1,1,,A,AAAAAAAAAAAAAAAAAAAA,0*26
$GPGSA,A,2,22,17,24,29,29,17,06,,01,10,02,07,2.1,1.5,2.4*37
$GPRMC,081958.64,A,0515.69,S,01413.22,E,46.9,72.3,090126,58.7,E*78
$GPGGA,081958.64,7349.96,S,03136.95,W,3,01,2.5,3143.4,M,-29.6,M,,*74
$GPRMC,081958.64,V,4155.31,N,17613.80,E,33.6,226.0,090126,177.8,W*6A
$GPGGA,081958.64,0918.23,S,00922.75,W,4,05,2.8,1063.8,M,-29.4,M,,*72
$GPRMC,081958.64,V,8822.47,N,01719.19,W,30.6,145.8,090126,72.2,E*51
!AIVDM,1,1,,A,AAAAAAAAAAAAAAAAAAAA,0*26
$GPGGA,081958.64,0225.69,N,05057.84,E,8,02,0.7,407.2,M,-34.8,M,,*4D
!AIVDM,1,1,,A,AAAAAAAAAAAAAAAAAAAA,0*26
$GPGGA,081958.64,7015.31,S,10234.68,E,7,07,2.3,3645.1,M,-7.0,M,,*5A
$GPGGA,081958.64,0604.47,S,08549.63,E,7,05,1.1,2300.5,M,-48.7,M,,*6B
!AIVDM,1,1,,A,AAAAAAAAAAAAAAAAAAAA,0*26
$GPRMC,081958.64,A,0851.69,S,17547.64,E,42.4,297.8,090126,26.0,E*45
$GPRMC,081958.64,A,0927.71,N,07657.30,W,8.8,43.4,090126,67.2,W*51
$GPRMC,081958.64,V,2549.15,S,14817.89,W,23.2,21.1,090126,22.7,W*63
$GPRMC,081958.64,A,3930.85,N,02007.92,W,40.4,257.1,090126,129.1,W*6B
$GPGGA,081958.64,2703.29,S,02756.62,E,6,03,1.4,5443.3,M,-47.6,M,,*6D
$GPGGA,081958.64,7401.17,N,13711.73,W,2,09,2.2,5722.0,M,34.1,M,,*4A
$GPGGA,081958.64,1304.72,N,11722.47,E,8,07,2.0,1575.1,M,-47.8,M,,*79
$GPGGA,081958.64,3843.18,N,08643.66,E,5,09,2.6,5217.0,M,6.6,M,,*67
$GPRMC,081958.64,V,8452.18,S,04308.42,W,38.4,332.1,090126,36.9,E*48
$GPGGA,081958.64,3432.93,N,13240.56,E,3,03,1.9,9415.2,M,45.4,M,,*5F
$GPGGA,081958.64,6937.34,S,03120.46,E,6,05,2.5,4394.1,M,25.4,M,,*4D
!AIVDM,1,1,,A,AAAAAAAAAAAAAAAAAAAA,0*26
$GPRMC,081958.64,V,3340.02,N,12244.29,W,23.3,280.3,090126,155.0,E*68
$GPGGA,081958.64,2526.14,N,16803.82,W,7,11,1.2,1431.1,M,25.8,M,,*4D
$GPGGA,081958.64,2915.97,N,10639.50,E,8,01,1.7,5506.2,M,-15.3,M,,*7A
$GPGSA,A,2,27,31,24,,26,21,,24,05,,22,23,3.3,2.7,1.9*3A
$GPGGA,081958.64,7331.16,N,01123.34,E,5,01,2.7,7361.0,M,-12.8,M,,*71
$GPRMC,081958.64,A,5356.25,S,03416.87,E,31.7,102.6,090126,93.2,W*51
$GPGSA,A,3,15,09,04,,04,12,03,14,,,31,04,3.9,2.5,1.5*35
$GPGGA,081958.64,0200.75,N,13522.58,E,8,08,1.1,7735.1,M,-34.9,M,,*7C
!AIVDM,1,1,,A,AAAAAAAAAAAAAAAAAAAA,0*26
$GPGGA,081958.64,5142.35,S,17618.87,E,3,09,1.2,2352.9,M,-32.9,M,,*6E
$GPRMC,081958.64,V,3420.63,S,06209.22,W,15.0,207.7,090126,1.0,E*79
$GPVTG,284.0,T,14.5,M,6.9,N,12.8,K,M*25
$GPVTG,240.4,T,354.8,M,46.5,N,86.2,K,A*20
$GPVTG,114.5,T,316.8,M,22.6,N,41.8,K,A*25
$GPGSA,M,3,17,03,17,07,,12,27,06,11,14,06,19,2.5,2.7,2.8*39
$GPGGA,081958.64,3542.88,N,05527.84,W,1,06,0.6,1658.8,M,45.6,M,,*4D
$GPVTG,174.0,T,318.3,M,25.1,N,46.6,K,D*2F
$GPGGA,081958.64,1024.92,S,15947.22,W,7,09,2.6,4324.6,M,21.0,M,,*51
$GPRMC,081958.64,V,7629.13,S,07113.81,E,6.0,27.9,090126,115.8,W*71
$GPVTG,286.0,T,192.3,M,45.8,N,84.8,K,D*2E
$GPGGA,081958.64,5806.12,S,13448.44,E,6,04,0.8,9724.8,M,22.9,M,,*4E
$GPGSA,M,3,32,,25,,13,,,25,01,15,19,14,3.9,0.6,2.6*3D
$GPVTG,126.8,T,349.1,M,18.3,N,33.9,K,M*2E
$GPGGA,081958.64,1856.97,S,08715.65,E,4,02,0.9,2201.6,M,-22.9,M,,*6F
$GPVTG,71.6,T,5.7,M,20.1,N,37.1,K,N*18
!AIVDM,1,1,,A,AAAAAAAAAAAAAAAAAAAA,0*26
$GPRMC,081958.64,V,6734.30,N,04122.68,E,8.1,334.2,090126,78.8,W*68
$GPRMC,081958.64,V,3126.58,S,17404.21,W,16.3,293.4,090126,45.1,W*57
$GPVTG,70.7,T,279.1,M,10.4,N,19.3,K,N*1F
$GPRMC,081958.64,V,5835.62,S,16155.15,E,14.8,88.1,090126,21.4,E*67
$GPVTG,209.2,T,108.7,M,6.1,N,11.2,K,D*14
$GPVTG,22.4,T,26.5,M,19.0,N,35.3,K,M*27
!AIVDM,1,1,,A,AAAAAAAAAAAAAAAAAAAA,0*26
$GPRMC,081958.64,V,2530.08,S,11144.02,E,24.1,64.1,090126,118.3,W*43
$GPGSA,M,1,21,02,26,,32,24,06,,,17,31,,0.9,2.1,0.7*31
$GPRMC,081958.64,V,2432.97,N,10001.78,W,39.2,162.5,090126,74.8,E*5B
$GPRMC,081958.64,V,3442.21,S,13840.98,W,3.0,205.6,090126,90.2,W*65
$GPVTG,357.4,T,245.4,M,3.2,N,5.9,K,S*3E
$GPVTG,126.5,T,359.8,M,50.0,N,92.5,K,S*3D
$GPRMC,081958.64,A,3842.86,S,11457.86,W,46.4,343.1,090126,66.5,W*4B
$GPGSA,M,2,,05,32,,07,16,03,24,27,07,,,0.6,2.4,1.5*38
$GPVTG,59.4,T,168.2,M,11.8,N,21.9,K,A*14
$GPGSA,A,1,01,04,23,15,30,12,24,11,22,28,,,1.5,2.3,1.9*31
$GPGSA,A,2,25,,23,31,06,01,,02,07,30,04,31,1.1,2.2,1.2*33
$GPRMC,081958.64,V,5718.28,S,09518.33,W,19.5,283.2,090126,134.0,E*77
$GPVTG,17.5,T,200.2,M,0.4,N,0.8,K,N*13
$GPVTG,338.0,T,31.9,M,21.4,N,39.7,K,D*1F
!AIVDM,1,1,,A,AAAAAAAAAAAAAAAAAAAA,0*26
$GPGGA,081958.64,6645.57,N,14718.14,E,3,11,1.4,5343.7,M,43.2,M,,*5A
$GPVTG,76.8,T,198.2,M,36.9,N,68.3,K,S*0B
$GPRMC,081958.64,V,0325.60,S,15600.74,E,3.6,183.1,090126,40.1,W*7B
$GPRMC,081958.64,A,8420.45,S,12728.03,W,11.1,199.1,090126,172.0,W*71
$GPGSA,A,2,,,09,21,20,29,02,,05,24,20,,4.2,2.1,2.4*30
$GPGSA,M,2,27,19,21,01,06,16,32,26,25,,28,17,2.5,0.9,0.6*37
$GPGGA,081958.64,3441.25,S,05030.06,E,7,08,1.2,2940.2,M,-48.8,M,,*62
!AIVDM,1,1,,A,AAAAAAAAAAAAAAAAAAAA,0*26
$GPGGA,081958.64,7515.95,S,00314.12,E,2,02,2.5,3898.8,M,-1.6,M,,*5F
$GPGSA,M,2,12,,,04,20,19,10,17,27,13,12,22,1.3,3.0,3.0*33
$GPGGA,081958.64,7813.71,S,10334.91,W,8,03,0.7,7520.5,M,23.1,M,,*52
$GPVTG,335.2,T,41.8,M,32.1,N,59.5,K,M*1C
!AIVDM,1,1,,A,AAAAAAAAAAAAAAAAAAAA,0*26
$GPGSA,A,3,27,04,22,04,25,30,27,11,08,,22,,2.6,1.1,2.2*3A
$GPGGA,081958.64,7430.41,S,05831.84,W,2,12,2.7,9679.8,M,-48.4,M,,*73
$GPGGA,081958.64,5228.75,S,01459.82,E,1,03,2.6,1579.1,M,42.2,M,,*4A
$GPVTG,184.8,T,211.7,M,20.6,N,38.1,K,D*28
$GPGGA,081958.64,1732.23,N,17955.16,E,4,08,2.6,1553.1,M,-2.9,M,,*41
$GPRMC,081958.64,V,1658.15,S,01913.67,E,26.1,356.2,090126,27.5,E*53
!AIVDM,1,1,,A,AAAAAAAAAAAAAAAAAAAA,0*26
$GPGSA,M,2,17,03,01,14,12,13,18,,18,20,30,15,4.7,3.0,2.0*38
$GPRMC,081958.64,V,5139.50,N,10834.09,W,19.3,253.3,090126,76.6,W*4B
!AIVDM,1,1,,A,AAAAAAAAAAAAAAAAAAAA,0*26
!AIVDM,1,1,,A,AAAAAAAAAAAAAAAAAAAA,0*26
$GPVTG,299.9,T,99.4,M,8.3,N,15.3,K,E*24
$GPGGA,081958.64,0639.01,S,01809.99,W,5,12,2.1,9394.1,M,-9.3,M,,*44
!AIVDM,1,1,,A,AAAAAAAAAAAAAAAAAAAA,0*26
$GPGGA,081958.64,0437.81,N,03502.50,E,1,03,1.6,820.5,M,36.0,M,,*65
$GPGGA,081958.64,3918.56,S,03248.51,W,1,05,1.9,4126.3,M,5.8,M,,*67
$GPGSA,M,1,20,20,19,01,31,16,12,24,,16,27,10,4.4,1.8,2.3*3E
$GPGGA,081958.64,0626.21,N,17042.86,W,2,01,0.6,2282.6,M,2.6,M,,*72
$GPRMC,081958.64,V,2651.16,N,07836.37,E,45.7,116.5,090126,108.4,E*7D
$GPVTG,185.5,T,286.3,M,29.6,N,54.7,K,A*2E
!AIVDM,1,1,,A,AAAAAAAAAAAAAAAAAAAA,0*26
!AIVDM,1,1,,A,AAAAAAAAAAAAAAAAAAAA,0*26
$GPGGA,081958.64,7855.14,S,15022.88,W,2,02,0.9,8597.2,M,-22.3,M,,*75
$GPVTG,291.0,T,181.6,M,12.6,N,23.4,K,D*22
!AIVDM,1,1,,A,AAAAAAAAAAAAAAAAAAAA,0*26
$GPGGA,081958.64,3046.00,N,08802.12,E,2,03,2.6,8851.3,M,-5.5,M,,*4D
$GPVTG,180.6,T,177.1,M,37.5,N,69.5,K,D*22
$GPGSA,M,3,26,01,24,06,23,25,11,20,31,12,11,30,2.0,2.1,1.9*34
$GPVTG,191.3,T,96.3,M,20.2,N,37.4,K,S*07
$GPGGA,081958.64,6945.78,S,01923.72,W,6,12,2.2,1029.3,M,44.7,M,,*5B
$GPVTG,60.4,T,148.1,M,39.4,N,72.9,K,S*0D
$GPVTG,326.1,T,99.6,M,24.0,N,44.4,K,N*1E
$GPGGA,081958.64,3648.34,S,03216.41,W,3,07,2.6,4153.9,M,-22.1,M,,*76
!AIVDM,1,1,,A,AAAAAAAAAAAAAAAAAAAA,0*26
$GPVTG,49.6,T,201.3,M,44.9,N,83.2,K,E*1C
$GPVTG,289.7,T,255.0,M,42.3,N,78.3,K,A*2C
$GPGSA,M,3,,,25,07,23,28,12,01,30,04,,22,4.5,1.1,1.7*37
!AIVDM,1,1,,A,AAAAAAAAAAAAAAAAAAAA,0*26
$GPRMC,081958.64,V,0632.93,N,15319.95,E,1.8,132.3,090126,123.6,W*5C
$GPGGA,081958.64,6554.08,N,14838.06,E,3,06,0.7,1914.7,M,40.5,M,,*51
$GPGGA,081958.64,2559.63,N,02918.98,E,7,05,2.3,5666.1,M,-8.9,M,,*42
!AIVDM,1,1,,A,AAAAAAAAAAAAAAAAAAAA,0*26
$GPVTG,219.8,T,242.4,M,46.9,N,86.9,K,S*3F
!AIVDM,1,1,,A,AAAAAAAAAAAAAAAAAAAA,0*26
$GPGSA,M,2,13,11,,,08,29,,30,19,,12,19,4.9,0.8,1.2*38
$GPRMC,081958.64,A,5354.77,N,13547.45,W,7.3,171.7,090126,56.7,E*7B
$GPGGA,081958.64,6022.58,N,05011.29,W,4,04,1.9,6526.0,M,14.3,M,,*4C
$GPGSA,A,2,11,07,31,20,,14,26,29,11,,32,24,1.9,0.9,1.0*39
$GPRMC,081958.64,A,4242.33,N,01754.65,W,1.8,261.7,090126,12.1,E*74
$GPGSA,A,3,26,,13,31,,,06,,22,12,,16,4.1,2.5,2.3*37
$GPRMC,081958.64,A,0652.82,N,17034.41,W,35.7,72.2,090126,21.0,W*61
$GPVTG,310.1,T,162.6,M,16.5,N,30.6,K,M*28
!AIVDM,1,1,,A,AAAAAAAAAAAAAAAAAAAA,0*26
$GPRMC,081958.64,A,0302.76,N,01307.19,W,8.3,8.8,090126,67.3,E*7D
$GPVTG,172.3,T,359.5,M,15.3,N,28.4,K,A*27
!AIVDM,1,1,,A,AAAAAAAAAAAAAAAAAAAA,0*26
!AIVDM,1,1,,A,AAAAAAAAAAAAAAAAAAAA,0*26
$GPGGA,081958.64,4457.83,S,09219.13,E,0,11,3.0,4451.8,M,-26.2,M,,*63
$GPGSA,A,2,11,03,04,03,16,29,03,,03,06,14,04,1.3,1.2,2.2*3D
!AIVDM,1,1,,A,AAAAAAAAAAAAAAAAAAAA,0*26
$GPGGA,081958.64,1002.06,N,15806.64,E,1,03,2.8,3400.2,M,24.8,M,,*5C
$GPRMC,081958.64,A,0401.99,N,09736.77,E,43.1,312.4,090126,67.4,E*52
!AIVDM,1,1,,A,AAAAAAAAAAAAAAAAAAAA,0*26
$GPRMC,081958.64,A,6836.30,S,17821.03,W,22.5,187.7,090126,19.9,W*4D
$GPGGA,081958.64,3520.43,S,16955.48,E,4,00,1.0,2120.8,M,-15.6,M,,*6D
$GPRMC,081958.64,V,6939.14,N,15212.89,E,12.0,27.0,090126,86.7,E*77
$GPRMC,081958.64,A,5530.15,N,03520.11,W,8.3,251.4,090126,38.1,W*6B
$GPVTG,218.3,T,30.8,M,31.3,N,58.0,K,S*0E
$GPVTG,189.4,T,212.9,M,47.9,N,88.7,K,E*26
$GPVTG,1.8,T,39.8,M,28.6,N,52.9,K,A*1A
$GPRMC,081958.64,V,8548.74,N,16650.16,W,4.3,282.4,090126,24.1,E*63
$GPVTG,149.5,T,23.8,M,44.6,N,82.6,K,N*16
$GPGSA,A,3,26,15,,,07,19,,,,04,03,29,4.8,2.0,2.1*3C
$GPRMC,081958.64,V,8431.10,N,05531.62,E,37.3,322.0,090126,8.8,W*63
$GPVTG,162.7,T,49.5,M,33.6,N,62.2,K,M*15
$GPVTG,220.2,T,213.3,M,21.9,N,40.6,K,M*26
$GPVTG,184.7,T,15.6,M,28.8,N,53.3,K,D*19
$GPGSA,M,1,21,05,,23,09,,20,02,02,12,,04,1.8,0.8,2.7*33
$GPGGA,081958.64,9004.27,N,08649.97,W,4,09,2.4,609.8,M,23.3,M,,*7B
$GPRMC,081958.64,A,2628.47,S,09659.01,W,46.3,91.2,090126,73.5,E*61
!AIVDM,1,1,,A,AAAAAAAAAAAAAAAAAAAA,0*26
$GPVTG,140.3,T,159.8,M,18.7,N,34.6,K,N*20
$GPVTG,137.9,T,330.1,M,38.7,N,71.7,K,M*2F
$GPVTG,351.7,T,250.3,M,41.8,N,77.5,K,N*20
$GPGSA,A,2,31,13,,,03,21,06,09,12,,03,24,2.3,0.5,2.0*3C
$GPRMC,081958.64,V,8032.99,N,06658.43,E,4.7,147.8,090126,164.1,E*44
$GPRMC,081958.64,V,5524.50,S,16333.44,W,4.4,60.7,090126,83.1,W*5D
$GPGSA,A,2,20,,29,32,23,31,,02,02,29,27,31,3.4,2.7,1.7*30
!AIVDM,1,1,,A,AAAAAAAAAAAAAAAAAAAA,0*26
!AIVDM,1,1,,A,AAAAAAAAAAAAAAAAAAAA,0*26
$GPVTG,318.1,T,335.4,M,47.7,N,88.4,K,N*26
$GPGGA,081958.64,3500.85,N,17712.84,W,7,05,1.4,4107.1,M,49.0,M,,*4C
!AIVDM,1,1,,A,AAAAAAAAAAAAAAAAAAAA,0*26
$GPGGA,081958.64,5151.77,S,13945.48,E,0,06,1.0,6457.8,M,40.1,M,,*43
$GPVTG,109.3,T,311.4,M,47.2,N,87.5,K,S*36
$GPGGA,081958.64,7856.10,S,12824.44,W,0,00,1.6,4995.5,M,-45.8,M,,*7A
$GPRMC,081958.64,A,0659.41,N,14047.53,E,40.7,93.0,090126,55.7,E*6A
$GPRMC,081958.64,V,8442.42,S,00257.07,E,33.9,118.3,090126,89.2,W*49
$GPRMC,081958.64,A,4845.44,S,11111.11,E,38.4,33.1,090126,8.8,W*56
$GPVTG,169.7,T,136.0,M,38.8,N,71.9,K,M*2E
$GPGGA,081958.64,3622.88,S,07220.51,E,2,00,1.6,7679.3,M,-7.9,M,,*53
$GPVTG,123.2,T,195.0,M,32.9,N,60.9,K,D*2E
$GPGGA,081958.64,8908.02,S,11357.62,E,7,01,3.0,7028.7,M,8.5,M,,*73
$GPGGA,081958.64,2527.06,S,12514.04,E,7,03,1.7,6929.5,M,-43.4,M,,*61
$GPGSA,A,1,,13,11,07,15,18,,05,26,16,25,27,4.9,0.6,0.7*30
$GPRMC,081958.64,A,3130.16,S,13325.98,W,10.2,222.0,090126,103.6,E*60
$GPGGA,081958.64,1434.73,S,04237.43,W,7,05,1.5,3324.7,M,20.6,M,,*5D
$GPVTG,179.7,T,13.5,M,32.5,N,60.2,K,E*18
$GPGGA,081958.64,4355.00,S,07823.63,W,0,04,1.2,6239.1,M,32.3,M,,*5B
!AIVDM,1,1,,A,AAAAAAAAAAAAAAAAAAAA,0*26
$GPGSA,M,1,31,,17,27,,,11,31,09,10,12,16,3.6,1.1,1.1*36
$GPRMC,081958.64,V,1622.42,S,01050.18,W,13.0,123.2,090126,149.6,E*75
$GPGSA,M,3,31,,14,22,29,20,,22,19,10,,06,2.1,1.0,1.8*34
$GPVTG,342.2,T,15.0,M,41.7,N,77.3,K,S*03
$GPGSA,M,2,21,28,,16,30,26,13,32,14,31,09,24,4.5,1.4,2.2*39
!AIVDM,1,1,,A,AAAAAAAAAAAAAAAAAAAA,0*26
$GPRMC,081958.64,A,7922.88,S,14612.02,W,30.5,141.9,090126,156.1,W*72
$GPGGA,081958.64,4808.92,N,12456.36,E,3,04,0.9,186.6,M,30.2,M,,*6A
$GPGGA,081958.64,2040.42,S,02614.36,W,8,00,1.2,4212.6,M,-42.2,M,,*78
$GPVTG,28.0,T,179.0,M,8.8,N,16.2,K,S*31
$GPGGA,081958.64,2537.35,S,14933.13,W,4,11,1.0,3003.8,M,-7.8,M,,*49
$GPGSA,M,3,30,09,12,23,32,13,09,16,09,21,18,09,3.1,0.6,2.2*35
$GPVTG,312.9,T,333.4,M,2.4,N,4.5,K,S*38
$GPVTG,134.1,T,229.5,M,14.6,N,27.1,K,M*23
!AIVDM,1,1,,A,AAAAAAAAAAAAAAAAAAAA,0*26
!AIVDM,1,1,,A,AAAAAAAAAAAAAAAAAAAA,0*26
$GPVTG,149.8,T,89.6,M,40.4,N,74.8,K,M*17
$GPGGA,081958.64,7305.62,N,00957.35,E,8,03,1.6,2643.1,M,10.0,M,,*55
$GPVTG,212.4,T,19.1,M,35.7,N,66.1,K,S*0D
$GPVTG,113.1,T,323.6,M,23.1,N,42.8,K,D*2E
!AIVDM,1,1,,A,AAAAAAAAAAAAAAAAAAAA,0*26
$GPRMC,081958.64,A,2729.70,N,12737.59,W,46.4,94.6,090126,72.5,E*71
$GPRMC,081958.64,A,0521.23,S,07051.62,E,7.4,302.2,090126,64.4,W*62
$GPVTG,152.4,T,14.7,M,25.1,N,46.5,K,E*16
!AIVDM,1,1,,A,AAAAAAAAAAAAAAAAAAAA,0*26
$GPVTG,81.6,T,270.6,M,13.9,N,25.7,K,N*1B
!AIVDM,1,1,,A,AAAAAAAAAAAAAAAAAAAA,0*26
$GPRMC,081958.64,A,5703.09,S,09426.92,E,29.8,260.8,090126,28.8,E*41
$GPGSA,A,2,22,19,23,26,25,,14,,19,08,09,10,4.6,2.9,1.0*3C
$GPVTG,13.3,T,198.2,M,10.8,N,19.9,K,S*0A
$GPVTG,233.9,T,179.9,M,48.3,N,89.5,K,N*2A
$GPGGA,081958.64,5928.02,S,06153.33,E,8,12,0.9,8848.1,M,8.8,M,,*75
$GPRMC,081958.64,V,7529.24,N,05618.63,E,20.2,158.9,090126,166.1,E*79
$GPGSA,M,2,,,,09,03,,25,26,05,11,20,21,2.1,1.1,2.9*3A
!AIVDM,1,1,,A,AAAAAAAAAAAAAAAAAAAA,0*26
$GPVTG,84.4,T,100.2,M,37.0,N,68.5,K,A*17
!AIVDM,1,1,,A,AAAAAAAAAAAAAAAAAAAA,0*26
!AIVDM,1,1,,A,AAAAAAAAAAAAAAAAAAAA,0*26
$GPGSA,M,1,32,,30,,29,12,06,08,23,16,21,26,1.9,2.5,1.4*33
$GPVTG,196.5,T,321.7,M,43.4,N,80.4,K,M*2C
!AIVDM,1,1,,A,AAAAAAAAAAAAAAAAAAAA,0*26
$GPRMC,081958.64,A,7721.23,N,04854.37,E,24.8,86.8,090126,13.1,E*6B
$GPRMC,081958.64,A,3736.65,S,07627.95,E,34.0,251.2,090126,144.6,E*78
$GPGSA,A,3,21,01,,18,28,32,08,05,,07,20,16,3.9,0.6,1.6*36
!AIVDM,1,1,,A,AAAAAAAAAAAAAAAAAAAA,0*26
$GPVTG,113.6,T,239.4,M,30.5,N,56.5,K,M*26
$GPVTG,258.0,T,108.9,M,24.3,N,44.9,K,M*2C
!AIVDM,1,1,,A,AAAAAAAAAAAAAAAAAAAA,0*26
$GPRMC,081958.64,V,1325.09,S,07013.96,W,3.8,281.6,090126,3.8,W*5A
!AIVDM,1,1,,A,AAAAAAAAAAAAAAAAAAAA,0*26
$GPRMC,081958.64,A,0432.35,N,17553.74,W,19.0,214.6,090126,113.4,E*72
$GPVTG,78.4,T,201.0,M,2.2,N,4.0,K,E*1B
!AIVDM,1,1,,A,AAAAAAAAAAAAAAAAAAAA,0*26
!AIVDM,1,1,,A,AAAAAAAAAAAAAAAAAAAA,0*26
!AIVDM,1,1,,A,AAAAAAAAAAAAAAAAAAAA,0*26
!AIVDM,1,1,,A,AAAAAAAAAAAAAAAAAAAA,0*26
$GPRMC,081958.64,A,6652.17,S,16241.31,E,45.4,244.6,090126,150.4,E*74
$GPVTG,91.8,T,185.2,M,23.7,N,44.0,K,A*1B
$GPGGA,081958.64,5824.46,N,02348.91,W,3,10,1.4,7952.9,M,40.4,M,,*4B
$GPRMC,081958.64,V,1541.88,S,05038.74,E,20.2,169.0,090126,110.3,E*60
$GPRMC,081958.64,V,8114.76,S,04432.60,E,44.3,254.3,090126,18.7,E*56
!AIVDM,1,1,,A,AAAAAAAAAAAAAAAAAAAA,0*26
!AIVDM,1,1,,A,AAAAAAAAAAAAAAAAAAAA,0*26
$GPGGA,081958.64,6805.50,S,06623.17,E,2,09,1.5,8513.7,M,27.5,M,,*41
$GPGSA,M,2,25,31,27,18,04,19,11,04,29,21,23,22,2.7,1.4,1.8*3E
$GPVTG,294.5,T,152.4,M,8.3,N,15.4,K,S*02
$GPVTG,94.0,T,193.7,M,0.0,N,0.1,K,E*17
$GPRMC,081958.64,A,2809.60,S,00719.22,E,9.7,278.6,090126,58.2,E*76
$GPRMC,081958.64,V,6208.72,S,12643.56,W,45.2,171.5,090126,177.6,E*7D
$GPRMC,081958.64,A,4801.49,N,01758.42,E,27.8,359.3,090126,140.9,W*79
!AIVDM,1,1,,A,AAAAAAAAAAAAAAAAAAAA,0*26
$GPGSA,M,1,04,32,,29,17,28,04,10,,28,02,20,4.8,2.7,0.6*3E
$GPVTG,238.1,T,231.7,M,46.8,N,86.7,K,S*3D
$GPVTG,69.5,T,228.5,M,20.0,N,37.0,K,M*1E
$GPRMC,081958.64,A,4403.15,N,09913.48,W,13.6,32.0,090126,55.1,E*74
$GPRMC,081958.64,A,3744.17,S,16944.56,W,45.6,284.4,090126,62.8,W*48
$GPVTG,4.5,T,358.7,M,21.0,N,38.9,K,M*26
!AIVDM,1,1,,A,AAAAAAAAAAAAAAAAAAAA,0*26
!AIVDM,1,1,,A,AAAAAAAAAAAAAAAAAAAA,0*26
!AIVDM,1,1,,A,AAAAAAAAAAAAAAAAAAAA,0*26
$GPRMC,081958.64,A,8409.29,N,02429.71,W,12.5,176.0,090126,18.3,W*52
$GPGGA,081958.64,0601.52,S,08515.26,E,8,03,2.0,3862.0,M,23.6,M,,*43
$GPVTG,30.8,T,16.8,M,32.2,N,59.6,K,A*2E
$GPVTG,76.0,T,70.2,M,14.8,N,27.5,K,A*2A
!AIVDM,1,1,,A,AAAAAAAAAAAAAAAAAAAA,0*26
$GPVTG,274.7,T,356.7,M,28.2,N,52.2,K,N*20
$GPGSA,M,2,29,28,,,25,08,25,30,,13,21,11,2.3,2.1,0.5*33
$GPVTG,50.1,T,8.7,M,34.5,N,63.9,K,S*04
$GPRMC,081958.64,V,2408.74,S,02419.32,W,6.0,327.8,090126,4.2,E*4F
$GPVTG,334.8,T,356.8,M,10.6,N,19.6,K,S*3C
$GPVTG,290.8,T,353.2,M,20.6,N,38.2,K,S*38
$GPVTG,310.9,T,337.4,M,42.0,N,77.8,K,D*20
$GPGGA,081958.64,3730.11,S,06334.48,W,2,02,1.1,8293.9,M,45.7,M,,*5B
!AIVDM,1,1,,A,AAAAAAAAAAAAAAAAAAAA,0*26
$GPRMC,081958.64,A,2735.47,S,15433.75,E,12.1,1.6,090126,128.3,W*6B
$GPGSA,M,2,14,23,26,02,23,13,26,,28,21,31,14,2.0,0.8,2.4*38
$GPVTG,70.5,T,0.2,M,5.8,N,10.8,K,D*22
$GPRMC,081958.64,V,2736.94,N,14759.26,E,47.3,311.5,090126,120.7,E*79
$GPGSA,A,2,23,12,25,31,19,05,28,25,19,,15,11,3.9,0.6,2.7*31
$GPRMC,081958.64,V,2034.52,S,15954.33,W,5.1,323.6,090126,19.5,W*62
$GPVTG,151.5,T,313.9,M,16.1,N,29.7,K,N*2E
!AIVDM,1,1,,A,AAAAAAAAAAAAAAAAAAAA,0*26
$GPGGA,081958.64,8548.08,N,17547.98,W,2,03,1.6,7194.7,M,-9.0,M,,*56
$GPGSA,A,3,,22,,28,19,18,28,28,31,14,06,,4.5,2.3,0.9*31
$GPRMC,081958.64,A,2053.48,S,17420.58,W,34.9,84.0,090126,121.7,W*44
!AIVDM,1,1,,A,AAAAAAAAAAAAAAAAAAAA,0*26
$GPRMC,081958.64,V,4113.10,N,15318.87,W,12.5,150.0,090126,80.5,W*44
$GPGSA,M,2,,24,16,18,25,31,11,06,19,26,25,29,3.4,1.1,1.8*3A
$GPGSA,M,2,,28,26,01,09,10,20,12,19,18,,27,1.9,1.7,3.0*30
!AIVDM,1,1,,A,AAAAAAAAAAAAAAAAAAAA,0*26
$GPGGA,081958.64,0902.25,S,08736.73,W,5,12,1.1,2510.5,M,16.5,M,,*58
$GPRMC,081958.64,V,6121.02,S,11741.56,E,32.1,273.8,090126,97.9,E*5F
$GPRMC,081958.64,A,8746.01,S,10105.51,E,44.1,60.7,090126,140.3,E*4D
!AIVDM,1,1,,A,AAAAAAAAAAAAAAAAAAAA,0*26
!AIVDM,1,1,,A,AAAAAAAAAAAAAAAAAAAA,0*26
$GPGGA,081958.64,2314.42,N,10117.35,E,6,00,2.1,401.6,M,26.8,M,,*6A
!AIVDM,1,1,,A,AAAAAAAAAAAAAAAAAAAA,0*26
$GPGGA,081958.64,4359.94,N,17237.32,E,3,09,2.9,9557.8,M,-39.4,M,,*71
$GPVTG,176.0,T,61.3,M,17.9,N,33.1,K,M*15
$GPGSA,A,3,01,,26,26,16,,24,,10,15,31,27,1.4,2.0,1.9*3F
!AIVDM,1,1,,A,AAAAAAAAAAAAAAAAAAAA,0*26
!AIVDM,1,1,,A,AAAAAAAAAAAAAAAAAAAA,0*26
$GPGSA,M,1,09,14,25,17,05,12,,,17,03,06,25,3.3,1.1,0.6*35
$GPGSA,A,3,18,08,04,16,18,25,05,02,,,,30,4.0,1.0,2.6*3B
$GPGSA,A,3,26,,12,01,,07,,17,06,,24,09,2.6,1.1,1.4*3D
$GPRMC,081958.64,A,6537.22,N,02449.28,W,36.8,214.9,090126,176.9,E*75
$GPRMC,081958.64,A,2011.05,N,15344.41,E,36.3,245.1,090126,46.5,W*4F
$GPVTG,227.1,T,81.0,M,35.1,N,65.1,K,S*0B
$GPVTG,354.4,T,257.1,M,14.2,N,26.3,K,M*28
$GPGGA,081958.64,0826.49,N,14047.60,W,0,04,2.2,3666.6,M,35.1,M,,*41
!AIVDM,1,1,,A,AAAAAAAAAAAAAAAAAAAA,0*26
$GPGGA,081958.64,3938.74,S,06133.11,E,5,07,2.0,3533.1,M,36.1,M,,*49
$GPGSA,A,3,02,05,02,29,,31,26,23,,19,27,,2.8,1.4,1.6*3E
$GPGSA,M,1,26,25,04,02,13,,31,14,25,13,29,19,3.3,2.0,1.1*38
$GPGGA,081958.64,0324.18,N,16639.71,E,3,01,1.2,4944.8,M,4.3,M,,*60
$GPGSA,A,3,27,26,28,10,18,18,20,,,01,,04,0.7,2.0,2.1*39
$GPVTG,168.2,T,81.6,M,31.6,N,58.5,K,E*19
!AIVDM,1,1,,A,AAAAAAAAAAAAAAAAAAAA,0*26
$GPGSA,M,2,,15,04,16,,05,18,28,,19,18,,3.2,1.9,1.9*3E
!AIVDM,1,1,,A,AAAAAAAAAAAAAAAAAAAA,0*26
$GPGSA,M,2,31,15,02,04,,28,03,16,30,15,13,01,2.6,1.2,1.5*36
$GPGSA,A,3,16,07,10,25,04,27,25,,26,,26,16,2.5,2.1,2.6*35
$GPGGA,081958.64,2108.44,N,10759.85,W,6,12,1.2,1893.3,M,-13.1,M,,*64
$GPRMC,081958.64,V,3149.92,S,10452.13,W,42.2,273.4,090126,87.4,W*58
$GPRMC,081958.64,A,3526.03,S,03139.94,E,3.3,351.7,090126,1.7,W*56
$GPGSA,M,2,,27,12,03,07,27,23,28,,13,08,,2.8,2.4,2.7*30
$GPVTG,112.8,T,328.5,M,2.4,N,4.4,K,A*23
$GPVTG,284.6,T,280.3,M,39.8,N,73.7,K,D*26
!AIVDM,1,1,,A,AAAAAAAAAAAAAAAAAAAA,0*26
!AIVDM,1,1,,A,AAAAAAAAAAAAAAAAAAAA,0*26
!AIVDM,1,1,,A,AAAAAAAAAAAAAAAAAAAA,0*26
$GPVTG,344.0,T,191.1,M,14.1,N,26.0,K,E*2C
$GPVTG,237.1,T,174.8,M,13.0,N,24.1,K,S*39
$GPRMC,081958.64,V,7054.44,S,03321.26,W,12.6,79.0,090126,16.0,E*7E
$GPRMC,081958.64,V,1753.10,S,10616.51,W,7.8,269.1,090126,150.1,E*40
$GPRMC,081958.64,A,5432.39,N,02544.67,E,30.3,159.9,090126,3.2,E*62
$GPGSA,A,2,08,03,,05,18,,10,26,,21,,19,5.0,2.9,2.9*3F
$GPRMC,081958.64,V,0658.17,N,15311.51,E,23.4,335.5,090126,140.0,E*72
$GPGSA,M,2,14,13,01,28,19,17,22,,,26,,05,1.0,2.7,2.4*3E
$GPVTG,272.1,T,81.1,M,18.2,N,33.6,K,E*14
$GPVTG,63.5,T,239.3,M,18.3,N,33.9,K,N*14
$GPGSA,M,2,,,24,26,29,17,24,04,32,02,32,14,0.9,2.5,0.6*3D
!AIVDM,1,1,,A,AAAAAAAAAAAAAAAAAAAA,0*26
$GPVTG,348.8,T,306.8,M,33.2,N,61.5,K,E*2D
$GPGSA,M,1,03,29,23,,15,,23,,01,04,26,23,1.4,1.1,1.2*36
$GPGSA,A,3,01,23,,27,,13,21,18,24,28,10,07,0.5,2.2,2.0*32
$GPGGA,081958.64,0436.29,N,06710.65,W,1,05,1.9,5196.2,M,-5.5,M,,*51
!AIVDM,1,1,,A,AAAAAAAAAAAAAAAAAAAA,0*26
$GPGGA,081958.64,5342.77,S,04804.41,W,1,04,1.2,8169.6,M,45.3,M,,*54
$GPVTG,45.6,T,248.0,M,18.0,N,33.3,K,A*10
$GPGGA,081958.64,7510.74,S,00512.88,W,0,03,2.5,6843.0,M,-11.9,M,,*72
$GPVTG,33.6,T,124.4,M,16.1,N,29.8,K,D*16
$GPVTG,334.5,T,357.7,M,8.3,N,15.4,K,A*1F
!AIVDM,1,1,,A,AAAAAAAAAAAAAAAAAAAA,0*26
!AIVDM,1,1,,A,AAAAAAAAAAAAAAAAAAAA,0*26
!AIVDM,1,1,,A,AAAAAAAAAAAAAAAAAAAA,0*26
$GPVTG,318.0,T,173.8,M,17.9,N,33.1,K,D*2F
!AIVDM,1,1,,A,AAAAAAAAAAAAAAAAAAAA,0*26
$GPRMC,081958.64,A,3359.92,S,08912.88,E,9.2,209.1,090126,124.2,E*47
$GPVTG,108.8,T,346.7,M,48.3,N,89.4,K,M*22
$GPGSA,A,2,11,21,27,18,06,12,07,08,,,18,,3.0,1.5,1.9*30
$GPVTG,320.5,T,238.6,M,26.4,N,48.9,K,D*28
$GPGGA,081958.64,7307.91,S,12732.17,E,7,07,1.9,3834.1,M,-49.6,M,,*64
$GPVTG,179.6,T,280.1,M,5.1,N,9.4,K,E*2C
$GPVTG,271.1,T,55.8,M,18.9,N,35.1,K,E*1D
!AIVDM,1,1,,A,AAAAAAAAAAAAAAAAAAAA,0*26
$GPVTG,162.4,T,307.8,M,0.9,N,1.7,K,N*2E
$GPVTG,359.5,T,173.0,M,48.5,N,89.7,K,E*27
$GPGGA,081958.64,7732.13,S,02828.81,E,2,02,1.5,3458.0,M,0.3,M,,*78
!AIVDM,1,1,,A,AAAAAAAAAAAAAAAAAAAA,0*26
$GPGSA,A,2,02,14,18,18,18,14,02,30,07,,29,03,2.5,1.5,1.6*32
$GPGSA,M,1,23,09,07,10,04,13,28,16,,01,32,31,4.6,2.3,2.6*3C
$GPGSA,A,2,27,25,20,16,12,29,03,,10,10,17,15,3.2,2.2,1.5*38
$GPGSA,M,1,16,22,07,08,01,01,24,31,01,32,28,09,1.1,1.5,2.3*36
$GPGGA,081958.64,3745.61,N,14253.51,W,5,07,2.8,4996.9,M,-1.0,M,,*58
$GPRMC,081958.64,A,6253.11,S,10908.15,E,39.5,245.4,090126,161.7,W*6B
$GPGGA,081958.64,5327.90,N,12336.78,E,4,08,1.7,6095.3,M,-1.7,M,,*4A
$GPRMC,081958.64,V,7524.27,S,03946.12,E,32.9,104.9,090126,113.5,E*69
!AIVDM,1,1,,A,AAAAAAAAAAAAAAAAAAAA,0*26
$GPRMC,081958.64,V,7325.11,N,08726.98,W,36.6,300.6,090126,95.9,E*54
!AIVDM,1,1,,A,AAAAAAAAAAAAAAAAAAAA,0*26
$GPGSA,A,1,07,,,32,04,14,03,02,,12,27,32,1.3,1.1,1.2*30
$GPRMC,081958.64,A,1954.62,N,17833.83,E,8.6,70.4,090126,50.1,W*48
$GPVTG,340.9,T,97.5,M,2.3,N,4.3,K,D*15
$GPGGA,081958.64,5806.93,S,05039.90,W,5,06,1.6,3692.9,M,29.2,M,,*50
$GPRMC,081958.64,A,5210.39,N,00440.38,E,38.9,265.0,090126,33.4,W*49
$GPGGA,081958.64,0646.36,N,14910.10,W,2,11,0.6,5471.1,M,-50.0,M,,*67
!AIVDM,1,1,,A,AAAAAAAAAAAAAAAAAAAA,0*26
$GPRMC,081958.64,V,0321.81,N,07957.76,W,5.3,111.4,090126,108.6,W*44
$GPGSA,A,1,13,28,,19,02,24,14,11,24,19,21,14,2.3,1.6,2.8*35
$GPRMC,081958.64,V,4254.52,S,02950.30,W,16.6,56.2,090126,53.0,W*6A
$GPRMC,081958.64,V,8401.02,S,09320.06,E,20.0,120.9,090126,123.5,E*6D
$GPGSA,M,1,,12,20,12,01,18,25,,21,06,18,32,4.2,2.7,2.9*34
$GPGSA,M,2,29,16,19,,10,,15,,,,23,21,1.2,2.3,2.7*3B
$GPVTG,30.5,T,289.0,M,2.4,N,4.4,K,S*02
$GPGSA,A,2,,26,,13,20,14,09,28,,09,32,28,4.3,2.3,2.8*3F
$GPRMC,081958.64,A,8618.95,N,06258.22,W,47.8,89.1,090126,76.5,W*66
$GPRMC,081958.64,V,4905.75,N,01439.93,E,1.4,200.3,090126,123.2,E*45
$GPGGA,081958.64,3314.66,N,10557.77,E,4,01,1.8,4215.6,M,-6.0,M,,*42
$GPGGA,081958.64,6955.86,S,00815.99,E,5,11,1.4,-76.6,M,39.7,M,,*65
$GPVTG,339.3,T,129.0,M,1.9,N,3.6,K,N*21
$GPRMC,081958.64,A,1018.04,S,08049.00,E,25.4,102.0,090126,80.7,E*40
$GPGGA,081958.64,3511.44,S,17108.51,W,8,11,1.5,7192.0,M,-42.8,M,,*72
$GPGSA,M,3,12,15,25,27,22,09,,,26,16,,07,1.5,1.6,1.8*3C
!AIVDM,1,1,,A,AAAAAAAAAAAAAAAAAAAA,0*26
$GPGSA,A,3,24,,,22,29,28,02,29,04,14,,03,1.6,2.3,2.9*33
$GPRMC,081958.64,V,1708.52,N,03217.46,W,2.4,138.1,090126,176.4,E*5B
$GPVTG,139.8,T,255.9,M,29.4,N,54.5,K,A*20
$GPRMC,081958.64,A,4353.21,N,02530.41,E,2.2,204.6,090126,9.1,E*50
$GPGGA,081958.64,5544.93,S,17254.96,E,8,03,3.0,948.2,M,-41.4,M,,*5C
$GPVTG,325.5,T,64.1,M,8.5,N,15.8,K,D*25
$GPRMC,081958.64,A,1937.95,N,05024.21,W,45.9,42.1,090126,165.2,W*54
$GPRMC,081958.64,V,5811.74,N,04336.77,E,3.6,338.9,090126,41.2,W*61
!AIVDM,1,1,,A,AAAAAAAAAAAAAAAAAAAA,0*26
!AIVDM,1,1,,A,AAAAAAAAAAAAAAAAAAAA,0*26
$GPRMC,081958.64,V,2319.93,S,12905.48,W,20.2,272.2,090126,76.2,E*45
$GPGSA,A,2,12,14,27,01,30,,31,15,26,30,32,31,2.7,2.8,2.6*3B
$GPGGA,081958.64,0539.04,N,17329.35,E,5,02,0.9,8494.8,M,49.7,M,,*5C
$GPGGA,081958.64,6746.21,N,07507.06,W,2,01,1.9,9489.8,M,18.2,M,,*47
$GPGGA,081958.64,3336.60,N,16424.77,W,2,01,1.7,3847.6,M,1.4,M,,*78
$GPVTG,287.8,T,163.5,M,43.0,N,79.7,K,M*25
$GPGGA,081958.64,1517.61,S,12506.17,E,0,08,2.3,365.1,M,-47.8,M,,*52
$GPVTG,242.4,T,252.6,M,4.7,N,8.7,K,S*3E
$GPVTG,170.0,T,84.7,M,37.3,N,69.2,K,M*18
!AIVDM,1,1,,A,AAAAAAAAAAAAAAAAAAAA,0*26
!AIVDM,1,1,,A,AAAAAAAAAAAAAAAAAAAA,0*26
$GPVTG,246.6,T,284.6,M,41.5,N,76.9,K,S*37
$GPVTG,313.8,T,326.4,M,1.8,N,3.4,K,A*27
$GPGSA,M,3,10,11,09,28,03,16,12,06,07,27,11,,4.5,3.0,1.2*3E
$GPRMC,081958.64,A,2758.11,N,14108.99,W,23.7,296.6,090126,82.6,W*5E
$GPVTG,22.2,T,162.0,M,4.6,N,8.5,K,M*17
$GPVTG,78.4,T,237.1,M,5.7,N,10.5,K,S*3B
!AIVDM,1,1,,A,AAAAAAAAAAAAAAAAAAAA,0*26
$GPVTG,103.7,T,201.9,M,13.9,N,25.7,K,N*28
$GPRMC,081958.64,V,5446.05,N,04301.85,E,36.2,56.8,090126,23.1,E*7D
$GPGGA,081958.64,8944.12,S,10743.80,W,8,02,2.3,1801.6,M,9.5,M,,*6F
!AIVDM,1,1,,A,AAAAAAAAAAAAAAAAAAAA,0*26
!AIVDM,1,1,,A,AAAAAAAAAAAAAAAAAAAA,0*26
$GPVTG,153.4,T,199.5,M,3.9,N,7.3,K,E*2E
$GPVTG,134.2,T,18.0,M,42.7,N,79.0,K,D*14
!AIVDM,1,1,,A,AAAAAAAAAAAAAAAAAAAA,0*26
$GPGSA,A,2,,18,21,13,14,,19,,26,09,,03,3.7,1.5,2.2*38
!AIVDM,1,1,,A,AAAAAAAAAAAAAAAAAAAA,0*26
$GPVTG,36.8,T,45.0,M,24.6,N,45.6,K,E*2C
$GPGSA,A,2,10,21,13,26,17,04,27,23,32,,30,27,3.1,0.9,3.0*3E
$GPGSA,A,3,03,09,20,,,03,09,10,,21,24,23,0.7,2.3,0.8*3B
$GPVTG,312.0,T,123.6,M,1.2,N,2.2,K,S*34
$GPGGA,081958.64,1613.55,N,16737.23,E,2,12,0.7,6062.3,M,-23.5,M,,*7C
$GPGSA,M,3,17,15,05,26,,12,,29,10,24,,27,2.0,1.5,0.8*39
$GPVTG,292.7,T,18.8,M,36.9,N,68.3,K,M*11
$GPGSA,A,3,,19,31,23,12,10,,26,28,24,31,,2.6,2.5,1.5*36
$GPGSA,A,2,24,15,15,22,01,13,10,12,21,25,12,,1.4,0.7,1.6*36
$GPGGA,081958.64,4929.86,N,01108.82,E,8,00,1.8,9188.9,M,-34.5,M,,*77
!AIVDM,1,1,,A,AAAAAAAAAAAAAAAAAAAA,0*26
$GPGSA,A,3,16,,06,23,,26,,14,22,04,18,01,4.1,2.2,0.9*33
$GPGSA,A,1,20,20,,02,19,09,,02,03,31,29,02,3.5,2.2,2.3*3E
$GPRMC,081958.64,A,5638.94,N,07744.63,E,20.2,272.9,090126,165.7,E*60
!AIVDM,1,1,,A,AAAAAAAAAAAAAAAAAAAA,0*26
$GPRMC,081958.64,A,7435.09,S,08219.27,W,32.2,330.9,090126,48.4,W*4F
!AIVDM,1,1,,A,AAAAAAAAAAAAAAAAAAAA,0*26
!AIVDM,1,1,,A,AAAAAAAAAAAAAAAAAAAA,0*26
$GPGGA,081958.64,6737.15,N,12305.34,W,7,01,1.5,8589.2,M,47.2,M,,*4E
$GPRMC,081958.64,A,6756.92,S,10926.68,E,4.2,191.7,090126,6.8,E*4B
$GPRMC,081958.64,A,6113.92,S,15334.47,E,1.7,84.0,090126,42.9,E*4E
$GPGSA,A,2,07,06,02,13,,21,,,,,24,,4.9,1.4,2.2*3F
$GPRMC,081958.64,V,1009.59,S,14523.45,E,9.2,99.1,090126,68.4,W*47
$GPGSA,A,2,04,06,10,20,11,23,06,,,08,,,4.1,2.4,1.9*36
$GPGSA,M,3,32,09,02,24,10,01,09,31,22,05,32,26,4.2,2.9,2.5*33
$GPGSA,A,2,02,30,19,01,21,26,22,21,09,29,19,03,3.2,2.8,1.3*3F
$GPGSA,M,3,,29,24,07,01,16,19,29,,20,24,10,3.2,0.6,1.2*30
$GPGGA,081958.64,8330.47,N,17315.10,W,0,12,1.2,7604.0,M,29.7,M,,*42
$GPGSA,A,2,,29,,20,10,11,,01,08,,14,03,2.4,0.6,2.9*3F
!AIVDM,1,1,,A,AAAAAAAAAAAAAAAAAAAA,0*26
!AIVDM,1,1,,A,AAAAAAAAAAAAAAAAAAAA,0*26
$GPGSA,A,1,14,24,,08,12,25,10,15,21,20,,,3.0,1.2,1.5*3F
!AIVDM,1,1,,A,AAAAAAAAAAAAAAAAAAAA,0*26
$GPGGA,081958.64,8605.76,N,15504.96,E,6,05,1.2,8804.4,M,6.5,M,,*61
$GPVTG,55.1,T,15.7,M,9.6,N,17.7,K,N*10
$GPVTG,175.6,T,183.8,M,0.5,N,1.0,K,D*25
$GPRMC,081958.64,A,4643.15,N,14632.67,W,31.1,184.0,090126,43.3,E*41
$GPGSA,M,2,19,15,13,17,,20,29,,,03,12,08,0.9,1.2,1.4*39
$GPVTG,224.1,T,61.8,M,44.1,N,81.7,K,E*12
$GPRMC,081958.64,V,7205.43,N,14720.33,W,20.3,352.0,090126,126.2,W*79
$GPGSA,A,3,31,05,25,29,15,,03,,08,10,,15,4.7,2.2,2.1*33
$GPRMC,081958.64,A,7500.13,S,09128.28,W,26.3,249.6,090126,72.8,W*4D
$GPGSA,M,1,30,32,,20,15,,21,06,,,06,30,1.2,1.1,1.7*3D
$GPGSA,A,2,26,,,06,,32,04,,31,18,25,32,4.0,1.4,2.6*3C
$GPRMC,081958.64,V,2233.24,S,11538.38,W,40.5,2.1,090126,155.7,E*74
$GPGGA,081958.64,4359.96,S,14040.85,W,5,08,2.2,674.1,M,-18.7,M,,*4F
$GPRMC,081958.64,V,1254.77,S,01531.21,W,38.0,252.8,090126,42.3,W*55
$GPGSA,A,2,,32,09,23,30,,21,,12,23,31,01,2.7,1.5,2.6*3E
$GPVTG,108.7,T,230.5,M,33.2,N,61.4,K,A*28
$GPRMC,081958.64,V,6035.05,N,10303.81,W,0.2,187.4,090126,156.7,W*4C
$GPRMC,081958.64,V,2828.48,S,07058.32,E,41.3,283.2,090126,62.4,E*5B
!AIVDM,1,1,,A,AAAAAAAAAAAAAAAAAAAA,0*26
$GPVTG,359.1,T,324.1,M,19.7,N,36.4,K,N*28
!AIVDM,1,1,,A,AAAAAAAAAAAAAAAAAAAA,0*26
$GPRMC,081958.64,A,3708.16,S,05754.43,W,40.3,241.3,090126,118.7,E*67
$GPRMC,081958.64,V,4652.48,N,04541.27,W,26.1,314.8,090126,131.5,W*79
$GPVTG,164.6,T,53.9,M,24.5,N,45.3,K,M*14
$GPGGA,081958.64,8332.44,N,06807.07,W,1,04,2.3,4144.8,M,29.5,M,,*43
$GPRMC,081958.64,A,0016.04,N,02822.43,E,36.2,201.1,090126,73.2,W*44
!AIVDM,1,1,,A,AAAAAAAAAAAAAAAAAAAA,0*26
$GPGGA,081958.64,3705.47,N,00322.56,E,1,10,1.8,1348.3,M,-34.2,M,,*7C
$GPVTG,225.6,T,282.3,M,25.1,N,46.5,K,A*2A
$GPGGA,081958.64,0042.30,N,05952.81,E,4,09,1.0,9506.8,M,48.3,M,,*54
!AIVDM,1,1,,A,AAAAAAAAAAAAAAAAAAAA,0*26
$GPGGA,081958.64,1630.58,N,15620.20,W,3,06,2.0,1766.8,M,42.0,M,,*44
$GPGSA,A,3,01,22,32,16,14,29,24,14,07,10,,21,2.5,2.1,0.7*3E
$GPGGA,081958.64,2333.40,N,09036.30,E,7,00,2.8,1203.3,M,20.9,M,,*5D
$GPGSA,M,3,03,29,14,31,23,17,31,24,,28,,13,4.9,2.3,2.9*3D
$GPVTG,154.6,T,328.9,M,13.1,N,24.2,K,N*2D
$GPVTG,65.7,T,268.6,M,37.1,N,68.7,K,M*1D
$GPVTG,343.9,T,113.8,M,22.5,N,41.6,K,S*31
$GPRMC,081958.64,A,3523.78,S,06304.20,E,14.8,55.5,090126,104.5,E*45
$GPGGA,081958.64,7250.09,N,10459.61,E,3,07,2.8,5975.6,M,-21.5,M,,*78
$GPVTG,115.4,T,198.1,M,2.4,N,4.5,K,M*28
$GPVTG,212.9,T,318.0,M,49.5,N,91.7,K,S*34
!AIVDM,1,1,,A,AAAAAAAAAAAAAAAAAAAA,0*26
$GPRMC,081958.64,A,0531.91,S,12820.10,E,23.2,281.9,090126,55.2,E*42
$GPGGA,081958.64,5459.58,N,12716.38,W,4,08,1.3,9537.3,M,-10.2,M,,*63
$GPGSA,A,3,07,32,,13,,,05,,,30,30,,0.8,2.1,1.1*38
$GPGSA,M,2,10,32,11,32,29,17,21,11,12,15,12,22,0.9,1.5,1.9*31
$GPGGA,081958.64,2943.75,S,05852.58,E,3,00,0.5,8298.0,M,-44.8,M,,*6E
$GPGSA,A,1,16,07,31,10,29,20,22,13,,15,07,13,3.5,0.5,0.9*33
$GPGGA,081958.64,8428.61,S,12708.73,E,3,00,2.9,3422.9,M,-42.9,M,,*62
$GPGSA,M,2,04,16,12,14,07,07,17,30,05,26,,18,4.7,1.6,2.8*39
$GPGGA,081958.64,6821.50,N,16226.07,W,3,07,2.4,6053.5,M,38.7,M,,*45
