$GPGGA,081958.83,1724.45,N,99999.99,E,1,09,2.7,3527.4,M,31.9,M,,*52
$GPGGA,081958.83,8419.58,N,13122.82,E,1,08,1.9,3983.5,M,49.9,M,,*XX
$GPGGA,081958.83,6008.59,N,08414.93,E,1,02,0.5,2370.0,M,31.7,M,,EXTRA,FIELD,1,2,3*77
$GPGGA 081958.83 1802.60 N
$GPGGA,081958.83,6519.59,N,10808.36,E,1,08,2.7,4669.0,M,30.6,M,,
$GPRMC,259999.99,A,4331.97,N,13727.29,E,41.0,343.9,090126,73.2,W*4F
$GPGGA 081958.83 8641.84 N
$GPRMC,081958.83,A,8844.88,N,13821.62,E,6.8,106.7,999999,42.2,W*7B
$GPVTG,483.9,T,490.7,M,299.9,N,425.7,K,M*2C
GPGGA,081958.83,4807.92,N,13801.02,E,1,07,2.2,7558.1,M,-37.8,M,,*7B
$GPGGA 081958.83 0610.77 N
$GPGGA,081958.83,,N,,E,1,,,M,,M,,*68
$GPGGA,081958.83,XXYY.ZZ,N,11058.65,E,1,07,1.4,8240.5,M,10.3,M,,*5F
$GPGGA,081958.83,1901.69,N,99999.99,E,1,02,2.5,8600.3,M,-32.9,M,,*78
$GPRMC,259999.99,A,5646.07,N,02444.54,E,17.6,281.6,090126,26.3,W*4A
$GPGGA,081958.83,XXYY.ZZ,N,02145.49,E,1,05,1.3,2759.9,M,12.7,M,,*56
$GPVTG,442.0,T,441.2,M,203.8,N,467.9,K,M*2B
$GPGGA,081958.83,3606.21,N,17208.49,E,1,11,2.0,4564.1,M,38.0,M,,EXTRA,FIELD,1,2,3*78
$GPRMC,081958.83,A,7225.50,N,03807.80,E,42.0,116.4,999999,70.7,W*4B
$GPRMC,259999.99,A,5949.46,N,09617.54,E,24.7,41.2,090126,53.8,W*72
GPGGA,081958.83,3200.40,N,13521.84,E,1,07,1.0,396.1,M,42.9,M,,*63
$GPGGA,081958.83,4706.44,N,02213.82,E,1,04,2.7,5566.4,M,-41.7,M,,
GPGGA,081958.83,5850.50,N,00100.57,E,1,11,1.1,5302.4,M,-27.8,M,,*74
$GPGGA,081958.83,XXYY.ZZ,N,11353.22,E,1,09,1.1,6077.5,M,-49.6,M,,*73
$GPGGA,081958.83,1803.64,N,12026.12,E,1,05,3.0,2670.2,M,18.4,M,,*XX
$INVALID_MESSAGE_FORMAT*XX
$GPVTG,443.5,T,407.3,M,233.3,N,478.9,K,M*2A
$GPGGA,081958.83,7659.16,N
$GPGGA,081958.83,1634.98,N,11441.51,E,1,05,1.3,2895.1,M,46.8,M,,
GPGGA,081958.83,4503.07,N,04058.75,E,1,11,2.6,1943.6,M,14.8,M,,*54
$GPVTG,472.3,T,437.1,M,288.8,N,421.3,K,M*22
$GPRMC,081958.83,A,1416.83,N,00259.62,E,35.4,128.3,999999,122.7,W*73
$GPRMC,081958.83,A,7644.94,N,02351.52,E,27.1,323.2,999999,137.5,W*76
$GPGGA,081958.83,5135.77,N,99999.99,E,1,02,2.5,5703.4,M,32.7,M,,*57
$GPGGA,081958.83,4405.43,N
$GPRMC,081958.83,A,2944.27,N,17935.79,E,28.5,43.3,999999,49.3,W*70
$GPGGA,081958.83,9999.99,N,13609.82,E,1,09,1.3,6050.4,M,33.5,M,,*54
GPGGA,081958.83,8007.09,N,12353.30,E,1,03,0.8,2265.5,M,12.7,M,,*50
GPGGA,081958.83,3630.45,N,15656.95,E,1,12,1.0,9127.6,M,31.4,M,,*5F
$GPGGA,081958.83,7044.73,N,99999.99,E,1,02,1.9,7883.1,M,-23.3,M,,*70
$GPGGA,081958.83,2321.65,N,08122.02,E,1,11,2.1,6484.3,M,-47.9,M,,
$GPGGA,081958.83,2629.68,N
$GPRMC,259999.99,A,2655.56,N,03743.87,E,49.2,315.9,090126,119.5,W*77
$GPGGA,081958.83,9999.99,N,12946.49,E,1,04,1.2,1576.6,M,49.3,M,,*55
$GPGGA,081958.83,4841.69,N,10652.25,E,1,06,1.0,9797.1,M,14.6,M,,
$GPGGA 081958.83 8714.64 N
$GPGGA,081958.83,5908.26,N,99999.99,E,1,04,0.8,8009.0,M,-7.2,M,,*46
$GPGGA,081958.83,4129.77,N,09136.62,E,1,08,1.7,8531.9,M,30.9,M,,
$GPGGA,081958.83,9999.99,N,03315.13,E,1,11,2.9,6682.9,M,42.8,M,,*5A
$GPGGA,081958.83,0753.38,N,99999.99,E,1,12,1.8,2487.1,M,42.8,M,,*55
$GPGGA 081958.83 8606.97 N
$GPGGA,081958.83,,N,,E,1,,,M,,M,,*68
$GPVTG,445.2,T,442.5,M,237.0,N,401.2,K,M*2E
$GPGGA,081958.83,3805.38,N,14335.21,E,1,06,2.9,5159.8,M,30.8,M,,
$GPVTG,486.9,T,481.3,M,276.1,N,400.3,K,M*27
$GPGGA,081958.83,XXYY.ZZ,N,17723.10,E,1,12,1.9,6554.1,M,-11.5,M,,*7B
$GPGGA,081958.83,,N,,E,1,,,M,,M,,*68
GPGGA,081958.83,0639.90,N,02902.41,E,1,08,1.3,5758.7,M,-6.3,M,,*49
$GPGGA,081958.83,1826.87,N
$GPGGA,081958.83,,N,,E,1,,,M,,M,,*68
$GPGGA 081958.83 6511.64 N
$GPGGA,081958.83,XXYY.ZZ,N,07426.55,E,1,02,2.6,1942.2,M,33.3,M,,*54
$GPGGA,081958.83,,N,,E,1,,,M,,M,,*68
$GPVTG,445.0,T,448.1,M,207.5,N,471.2,K,M*23
$GPVTG,442.7,T,453.1,M,257.0,N,462.6,K,M*2F
$GPGGA,081958.83,4256.00,N,16302.88,E,1,03,2.4,6867.1,M,25.0,M,,EXTRA,FIELD,1,2,3*7D
$GPGGA,081958.83,,N,,E,1,,,M,,M,,*68
$GPGGA 081958.83 1013.17 N
$INVALID_MESSAGE_FORMAT*XX
$GPRMC,081958.83,A,5328.22,N,01019.84,E,30.6,77.5,999999,26.9,W*78
$GPGGA,081958.83,,N,,E,1,,,M,,M,,*68
$GPGGA,081958.83,5701.09,N,07121.92,E,1,06,2.9,4781.4,M,-34.6,M,,
$GPGGA 081958.83 6720.75 N
$GPGGA,081958.83,3415.15,N,99999.99,E,1,10,1.5,6813.9,M,-9.4,M,,*44
$GPGGA,081958.83,,N,,E,1,,,M,,M,,*68
$GPGGA,081958.83,4002.38,N,99999.99,E,1,01,2.1,323.7,M,-31.5,M,,*43
$GPVTG,495.7,T,444.7,M,230.1,N,430.2,K,M*26
$GPGGA,081958.83,,N,,E,1,,,M,,M,,*68
GPGGA,081958.83,7155.09,N,16948.37,E,1,01,1.6,1635.2,M,42.7,M,,*57
$INVALID_MESSAGE_FORMAT*XX
$GPGGA,081958.83,,N,,E,1,,,M,,M,,*68
$GPGGA,081958.83,7910.60,N,11940.68,E,1,08,1.8,5538.9,M,-46.3,M,,
$GPGGA,081958.83,7942.07,N
$GPRMC,259999.99,A,8623.98,N,06118.64,E,47.4,229.0,090126,139.8,W*7E
$INVALID_MESSAGE_FORMAT*XX
$GPGGA,081958.83,5751.36,N,07044.27,E,1,07,2.0,7059.5,M,23.2,M,,EXTRA,FIELD,1,2,3*7B
$GPRMC,081958.83,A,0619.12,N,08057.80,E,11.4,101.0,999999,115.4,W*76
$GPVTG,493.5,T,403.3,M,260.1,N,481.0,K,M*28
$GPGGA,081958.83,XXYY.ZZ,N,01808.74,E,1,00,1.2,4903.2,M,30.6,M,,*52
$GPRMC,081958.83,A,0243.47,N,09344.16,E,6.7,154.2,999999,96.1,W*7A
$GPGGA,081958.83,7155.59,N,08110.14,E,1,11,1.5,6199.1,M,-2.3,M,,EXTRA,FIELD,1,2,3*6B
$GPGGA,081958.83,6813.77,N,99999.99,E,1,08,1.4,8466.0,M,-20.8,M,,*79
$GPVTG,437.1,T,482.3,M,293.1,N,441.3,K,M*28
$GPGGA,081958.83,9020.66,N,17108.61,E,1,09,1.0,261.8,M,-35.9,M,,
$GPGGA,081958.83,9999.99,N,03900.86,E,1,01,2.5,8486.6,M,17.3,M,,*59
$GPGGA,081958.83,5604.03,N
$GPGGA,081958.83,2123.04,N,14456.47,E,1,04,0.9,5559.0,M,47.4,M,,
$GPRMC,081958.83,A,4842.02,N,17524.64,E,30.1,217.6,999999,177.8,W*7A
$GPGGA,081958.83,6143.51,N,05241.17,E,1,11,1.9,5818.2,M,-22.4,M,,*XX
$GPRMC,081958.83,A,4711.39,N,13737.71,E,7.5,275.0,999999,5.3,W*46
$GPVTG,420.7,T,424.8,M,295.2,N,436.6,K,M*2F
$GPGGA,081958.83,XXYY.ZZ,N,01532.23,E,1,10,2.4,6937.1,M,2.4,M,,*65
$GPGGA,081958.83,9999.99,N,07728.32,E,1,03,2.6,771.0,M,-39.2,M,,*42
$INVALID_MESSAGE_FORMAT*XX
$GPGGA,081958.83,3849.75,N,99999.99,E,1,06,2.9,5330.0,M,18.1,M,,*57
$GPGGA,081958.83,XXYY.ZZ,N,00910.34,E,1,04,0.9,3818.0,M,36.0,M,,*5F
$GPGGA,081958.83,6928.87,N,02620.32,E,1,06,2.8,7701.8,M,5.5,M,,
$GPGGA,081958.83,3038.92,N
$GPGGA,081958.83,7518.66,N,13949.44,E,1,10,1.3,7262.6,M,-23.4,M,,*XX
GPGGA,081958.83,7832.67,N,10131.69,E,1,07,1.6,6333.1,M,36.0,M,,*59
$GPGGA,081958.83,9999.99,N,15338.34,E,1,03,2.2,5121.5,M,-21.6,M,,*78
$GPGGA,081958.83,0031.83,N,09602.02,E,1,07,1.6,7819.6,M,-7.1,M,,EXTRA,FIELD,1,2,3*6E
$INVALID_MESSAGE_FORMAT*XX
$GPRMC,081958.83,A,1603.85,N,03510.35,E,5.7,329.1,999999,36.9,W*73
$GPVTG,406.1,T,448.3,M,223.8,N,498.6,K,M*2F
$GPGGA,081958.83,5148.70,N
$GPGGA,081958.83,5447.59,N,09908.22,E,1,00,2.4,9142.9,M,-14.7,M,,*XX
$GPRMC,259999.99,A,2013.74,N,05714.48,E,46.9,274.0,090126,33.9,W*4A
$GPGGA,081958.83,2659.18,N,09747.87,E,1,03,1.9,2302.7,M,0.4,M,,EXTRA,FIELD,1,2,3*4A
$GPGGA 081958.83 7300.54 N
$GPVTG,405.9,T,432.5,M,235.4,N,481.9,K,M*23
$GPGGA,081958.83,9999.99,N,09143.46,E,1,11,2.8,1284.0,M,25.1,M,,*54
$INVALID_MESSAGE_FORMAT*XX
$GPGGA,081958.83,5849.35,N,02514.11,E,1,03,1.0,1696.9,M,4.3,M,,*XX
$GPGGA,081958.83,8513.99,N,11456.75,E,1,06,0.6,435.6,M,-2.6,M,,
$GPGGA 081958.83 3945.72 N
GPGGA,081958.83,0913.40,N,11947.62,E,1,11,0.8,917.0,M,7.3,M,,*58
$GPGGA,081958.83,8605.91,N,13812.07,E,1,09,1.3,5510.2,M,-29.6,M,,EXTRA,FIELD,1,2,3*57
$GPGGA,081958.83,8719.67,N,03515.38,E,1,09,0.7,5997.8,M,3.7,M,,
$INVALID_MESSAGE_FORMAT*XX
GPGGA,081958.83,3206.91,N,15405.65,E,1,12,1.4,2458.7,M,8.6,M,,*67
$GPGGA,081958.83,6656.17,N,03528.54,E,1,01,1.3,1206.7,M,-36.5,M,,EXTRA,FIELD,1,2,3*56
$GPGGA,081958.83,,N,,E,1,,,M,,M,,*68
$GPGGA 081958.83 8814.25 N
$GPGGA,081958.83,3647.25,N,04416.36,E,1,04,2.7,2649.6,M,-49.4,M,,*XX
GPGGA,081958.83,7458.57,N,03345.19,E,1,10,1.0,1431.1,M,12.0,M,,*5A
$INVALID_MESSAGE_FORMAT*XX
$GPGGA,081958.83,3345.13,N,03040.61,E,1,00,0.9,3535.5,M,5.4,M,,EXTRA,FIELD,1,2,3*4C
$GPGGA,081958.83,,N,,E,1,,,M,,M,,*68
$GPGGA,081958.83,5310.07,N,10252.93,E,1,09,1.2,235.7,M,-24.1,M,,EXTRA,FIELD,1,2,3*6F
$GPGGA,081958.83,1147.40,N
$GPGGA 081958.83 8114.21 N
$GPGGA,081958.83,5227.73,N,99999.99,E,1,05,1.6,7762.6,M,-13.1,M,,*7B
$GPGGA,081958.83,0554.30,N,10503.93,E,1,00,2.6,2140.7,M,18.9,M,,
$GPVTG,452.5,T,469.9,M,223.0,N,452.4,K,M*2F
$GPGGA,081958.83,2211.65,N,07445.36,E,1,11,0.8,1977.9,M,9.4,M,,
$GPGGA,081958.83,9999.99,N,07004.29,E,1,09,2.7,1547.4,M,34.0,M,,*5A
$GPGGA,081958.83,4847.67,N
$GPGGA,081958.83,8757.79,N
$GPGGA 081958.83 3807.26 N
$GPGGA,081958.83,3221.14,N,99999.99,E,1,12,2.4,4193.1,M,48.7,M,,*54
$GPVTG,428.0,T,496.0,M,243.5,N,471.9,K,M*21
$INVALID_MESSAGE_FORMAT*XX
$GPGGA 081958.83 5915.86 N
$GPRMC,081958.83,A,0857.54,N,00913.61,E,4.8,232.2,999999,16.2,W*73
$GPGGA,081958.83,7727.33,N
$GPGGA,081958.83,4651.35,N,11228.49,E,1,00,1.9,6277.2,M,-45.4,M,,
$GPGGA,081958.83,4944.05,N,09557.51,E,1,11,2.7,6343.2,M,29.0,M,,*XX
$GPGGA,081958.83,3713.90,N
GPGGA,081958.83,3509.33,N,06522.37,E,1,03,1.9,1714.4,M,-30.1,M,,*71
$GPGGA,081958.83,,N,,E,1,,,M,,M,,*68
$GPVTG,435.2,T,482.2,M,225.7,N,416.7,K,M*25
$GPGGA,081958.83,4940.99,N,04030.09,E,1,04,0.7,2192.1,M,9.8,M,,EXTRA,FIELD,1,2,3*4E
$INVALID_MESSAGE_FORMAT*XX
$GPGGA,081958.83,2304.31,N
$GPGGA,081958.83,2612.30,N,15619.55,E,1,00,1.7,3980.8,M,44.6,M,,*XX
$GPGGA,081958.83,XXYY.ZZ,N,04351.77,E,1,01,1.6,6881.3,M,-39.9,M,,*75
$GPGGA,081958.83,0235.04,N,04519.49,E,1,00,1.9,3249.0,M,-8.9,M,,*XX
$GPRMC,081958.83,A,5720.97,N,06644.47,E,18.0,329.0,999999,147.1,W*73
$GPRMC,081958.83,A,5221.78,N,08747.89,E,25.2,298.7,999999,138.5,W*74
$GPGGA,081958.83,1859.07,N,05845.15,E,1,01,2.2,5291.9,M,-21.7,M,,*XX
GPGGA,081958.83,6927.00,N,02753.53,E,1,09,1.1,277.8,M,-16.8,M,,*44
$GPGGA,081958.83,1141.89,N,11828.52,E,1,04,1.1,9292.8,M,26.2,M,,EXTRA,FIELD,1,2,3*79
$GPGGA,081958.83,XXYY.ZZ,N,06128.06,E,1,05,2.6,1873.1,M,47.6,M,,*59
$GPGGA,081958.83,0951.21,N,99999.99,E,1,01,2.4,4549.2,M,-20.3,M,,*78
$GPGGA,081958.83,8353.18,N
$GPGGA,081958.83,0714.66,N,04615.36,E,1,09,0.8,4272.3,M,38.5,M,,
$GPGGA,081958.83,7614.08,N,10305.67,E,1,00,1.5,739.8,M,-48.9,M,,
GPGGA,081958.83,0151.53,N,14308.48,E,1,06,1.0,2369.3,M,22.1,M,,*50
$GPGGA,081958.83,XXYY.ZZ,N,09737.15,E,1,10,2.1,8995.0,M,-20.6,M,,*72
$GPRMC,081958.83,A,7942.07,N,09732.86,E,30.6,329.2,999999,120.9,W*77
$GPGGA,081958.83,6258.27,N,14950.09,E,1,04,0.7,6077.8,M,42.7,M,,
$GPGGA 081958.83 8020.20 N
$GPGGA,081958.83,,N,,E,1,,,M,,M,,*68
$GPGGA,081958.83,9999.99,N,06020.40,E,1,10,1.8,9213.4,M,10.0,M,,*5E
GPGGA,081958.83,1950.22,N,09037.10,E,1,07,0.6,4205.7,M,10.9,M,,*56
$GPVTG,486.8,T,477.7,M,260.7,N,433.2,K,M*2B
$GPRMC,259999.99,A,1420.22,N,13043.87,E,44.9,100.3,090126,130.1,W*74
$GPGGA,081958.83,0841.03,N,13650.70,E,1,02,1.0,7325.4,M,7.3,M,,EXTRA,FIELD,1,2,3*4A
$GPGGA,081958.83,6521.71,N,06858.48,E,1,11,0.9,4443.1,M,34.5,M,,*XX
$GPGGA,081958.83,,N,,E,1,,,M,,M,,*68
$GPGGA,081958.83,,N,,E,1,,,M,,M,,*68
$GPGGA,081958.83,3426.42,N,02121.52,E,1,11,2.4,7509.2,M,25.7,M,,*XX
$GPRMC,081958.83,A,8222.15,N,16546.49,E,37.4,48.2,999999,132.2,W*43
$GPRMC,259999.99,A,2837.31,N,00901.81,E,22.7,179.9,090126,6.1,W*7A
$GPGGA,081958.83,9999.99,N,00812.65,E,1,02,2.6,5204.2,M,-32.5,M,,*7C
$GPGGA,081958.83,0345.69,N,12351.80,E,1,12,1.8,101.6,M,-9.0,M,,EXTRA,FIELD,1,2,3*5B
$GPGGA,081958.83,9999.99,N,15915.30,E,1,03,1.2,2279.6,M,-23.8,M,,*7C
$GPGGA,081958.83,6732.54,N,14524.55,E,1,06,1.4,4583.5,M,-43.7,M,,
$GPGGA,081958.83,1441.31,N,00116.44,E,1,11,1.8,3483.1,M,-14.7,M,,*XX
GPGGA,081958.83,2121.62,N,07929.23,E,1,07,2.9,7444.7,M,-21.0,M,,*7C
$GPGGA,081958.83,9999.99,N,00854.22,E,1,10,2.6,3543.1,M,49.8,M,,*53
$GPGGA,081958.83,8033.56,N
$GPGGA,081958.83,3421.29,N,08313.69,E,1,02,2.3,7878.6,M,23.1,M,,
$GPGGA,081958.83,,N,,E,1,,,M,,M,,*68
$GPGGA,081958.83,0739.19,N,15742.06,E,1,03,1.4,4265.5,M,29.0,M,,EXTRA,FIELD,1,2,3*79
$GPRMC,259999.99,A,7126.59,N,07928.59,E,38.3,49.2,090126,156.5,W*47
$GPRMC,081958.83,A,1054.12,N,09105.74,E,39.1,274.1,999999,109.6,W*74
$GPRMC,259999.99,A,8943.97,N,00015.52,E,1.8,48.5,090126,145.9,W*73
$GPGGA,081958.83,8940.48,N
$GPGGA 081958.83 4533.29 N
$GPVTG,405.2,T,464.5,M,243.4,N,402.1,K,M*29
$GPGGA,081958.83,,N,,E,1,,,M,,M,,*68
$GPVTG,450.7,T,461.9,M,299.1,N,488.1,K,M*25
$GPGGA,081958.83,7318.84,N,00957.37,E,1,09,0.8,8014.6,M,-24.1,M,,
$GPGGA,081958.83,XXYY.ZZ,N,01308.71,E,1,04,2.6,3216.6,M,12.7,M,,*52
$GPRMC,259999.99,A,3515.39,N,17641.90,E,11.9,190.7,090126,114.9,W*7E
$GPGGA,081958.83,8948.67,N
$GPGGA,081958.83,,N,,E,1,,,M,,M,,*68
$GPGGA,081958.83,1702.62,N,99999.99,E,1,10,2.4,1942.9,M,-2.8,M,,*44
$GPGGA,081958.83,6446.36,N,15705.38,E,1,10,0.8,8442.3,M,33.5,M,,EXTRA,FIELD,1,2,3*7F
$GPGGA,081958.83,4106.34,N
$GPGGA,081958.83,1323.16,N,99999.99,E,1,05,0.8,187.1,M,-14.8,M,,*45
$GPGGA,081958.83,1800.91,N
GPGGA,081958.83,6046.35,N,06623.43,E,1,10,3.0,1128.4,M,5.7,M,,*60
$INVALID_MESSAGE_FORMAT*XX
$INVALID_MESSAGE_FORMAT*XX
$GPGGA,081958.83,5428.86,N,00059.29,E,1,11,0.8,2697.0,M,-36.5,M,,*XX
$GPGGA,081958.83,2359.72,N,09247.54,E,1,06,2.3,4549.9,M,44.7,M,,*XX
$GPGGA,081958.83,XXYY.ZZ,N,04830.15,E,1,02,1.5,6117.3,M,-40.0,M,,*7C
$GPGGA,081958.83,4306.89,N,99999.99,E,1,05,2.6,7023.6,M,34.5,M,,*50
$GPGGA,081958.83,6033.82,N,14328.44,E,1,02,0.5,8653.7,M,-49.8,M,,EXTRA,FIELD,1,2,3*52
$GPRMC,081958.83,A,2205.64,N,13143.61,E,34.7,5.6,999999,178.5,W*70
$GPGGA,081958.83,2743.16,N,09854.82,E,1,01,2.0,3194.8,M,-6.3,M,,*XX
$GPGGA,081958.83,9999.99,N,10620.97,E,1,02,1.0,1147.8,M,13.7,M,,*5C
$GPGGA,081958.83,8505.49,N,08509.39,E,1,10,2.6,323.5,M,3.7,M,,EXTRA,FIELD,1,2,3*7F
$GPGGA 081958.83 5943.11 N
GPGGA,081958.83,8507.46,N,10317.59,E,1,03,2.2,1711.2,M,-28.3,M,,*79
$GPGGA,081958.83,2435.11,N,10408.77,E,1,01,3.0,9867.0,M,4.5,M,,*XX
$GPGGA,081958.83,0743.58,N,99999.99,E,1,09,2.4,2181.9,M,26.4,M,,*52
$GPRMC,081958.83,A,7144.49,N,04604.62,E,21.0,199.3,999999,122.8,W*7D
$GPGGA 081958.83 2522.19 N
$GPGGA 081958.83 4852.48 N
$INVALID_MESSAGE_FORMAT*XX
GPGGA,081958.83,4759.75,N,01620.34,E,1,11,1.7,6725.7,M,29.1,M,,*58
$GPGGA,081958.83,1927.46,N,13633.10,E,1,07,0.5,4630.5,M,44.0,M,,EXTRA,FIELD,1,2,3*7E
$GPGGA,081958.83,9999.99,N,16930.84,E,1,10,0.9,1792.7,M,-46.0,M,,*76
$GPVTG,471.7,T,413.3,M,260.2,N,432.9,K,M*25
$GPGGA,081958.83,2823.62,N,08617.16,E,1,07,1.4,2473.3,M,-19.8,M,,*XX
$GPGGA,081958.83,7456.38,N,99999.99,E,1,01,0.6,7983.7,M,3.8,M,,*66
$INVALID_MESSAGE_FORMAT*XX
$GPGGA,081958.83,9999.99,N,05303.22,E,1,12,0.5,5245.2,M,8.2,M,,*67
$INVALID_MESSAGE_FORMAT*XX
$GPGGA,081958.83,,N,,E,1,,,M,,M,,*68
$GPRMC,081958.83,A,8041.57,N,14100.57,E,35.9,171.4,999999,169.4,W*73
$GPGGA,081958.83,XXYY.ZZ,N,10002.24,E,1,02,1.5,1461.7,M,34.1,M,,*5A
$GPGGA,081958.83,9999.99,N,13528.48,E,1,06,1.8,2521.8,M,-48.9,M,,*70
$GPGGA,081958.83,3024.49,N,11139.82,E,1,08,2.3,8083.2,M,23.5,M,,EXTRA,FIELD,1,2,3*77
$GPGGA,081958.83,9999.99,N,14332.85,E,1,01,1.9,9256.4,M,2.1,M,,*66
$GPGGA,081958.83,0643.07,N,06201.92,E,1,12,2.5,621.2,M,-35.9,M,,*XX
$GPGGA,081958.83,XXYY.ZZ,N,06857.38,E,1,12,1.1,4049.3,M,-28.4,M,,*77
$GPGGA,081958.83,6032.66,N,10557.79,E,1,00,2.5,6573.4,M,-44.4,M,,
$GPGGA 081958.83 3106.54 N
$GPRMC,081958.83,A,2113.05,N,10141.28,E,19.8,25.5,999999,54.4,W*70
GPGGA,081958.83,1756.10,N,07948.27,E,1,01,2.1,5854.8,M,49.3,M,,*51
$GPVTG,460.4,T,451.6,M,229.3,N,415.2,K,M*27
$GPGGA,081958.83,,N,,E,1,,,M,,M,,*68
$GPGGA,081958.83,,N,,E,1,,,M,,M,,*68
GPGGA,081958.83,0205.88,N,01125.26,E,1,01,1.2,9915.4,M,2.1,M,,*6F
$GPGGA,081958.83,,N,,E,1,,,M,,M,,*68
$GPGGA,081958.83,2838.80,N
$GPGGA,081958.83,,N,,E,1,,,M,,M,,*68
$GPGGA,081958.83,1746.16,N,11915.81,E,1,10,2.4,9441.6,M,-19.1,M,,*XX
$GPGGA,081958.83,0824.77,N,10838.49,E,1,11,0.5,5055.6,M,-4.3,M,,EXTRA,FIELD,1,2,3*6F
$GPGGA,081958.83,XXYY.ZZ,N,07016.10,E,1,01,1.2,5278.2,M,-10.3,M,,*7C
$GPGGA,081958.83,3149.51,N,15000.39,E,1,10,2.1,9111.3,M,20.6,M,,
$GPGGA,081958.83,2634.47,N
$GPGGA,081958.83,2533.85,N
$GPGGA,081958.83,XXYY.ZZ,N,15231.05,E,1,10,1.4,4226.9,M,36.3,M,,*52
$GPRMC,259999.99,A,3354.96,N,13808.73,E,2.8,162.7,090126,70.9,W*7F
$GPGGA,081958.83,9999.99,N,11600.96,E,1,11,1.3,6072.4,M,-32.8,M,,*72
$GPRMC,259999.99,A,2859.87,N,10113.63,E,39.0,88.3,090126,148.1,W*4A
$GPGGA,081958.83,3220.05,N
GPGGA,081958.83,5328.58,N,08809.09,E,1,06,2.9,6424.9,M,48.7,M,,*50
$GPGGA 081958.83 4854.97 N
$GPGGA,081958.83,9999.99,N,07330.20,E,1,08,3.0,6802.7,M,8.3,M,,*64
$GPGGA,081958.83,0029.39,N,17611.22,E,1,06,1.8,2339.6,M,-4.1,M,,EXTRA,FIELD,1,2,3*69
$INVALID_MESSAGE_FORMAT*XX
$GPGGA,081958.83,4751.48,N,16440.64,E,1,02,0.6,3483.2,M,42.6,M,,
$GPRMC,081958.83,A,8222.90,N,17001.82,E,45.0,318.2,999999,24.7,W*4A
GPGGA,081958.83,2247.14,N,05200.89,E,1,00,2.1,4496.5,M,-15.8,M,,*72
$GPGGA,081958.83,XXYY.ZZ,N,05559.29,E,1,03,0.5,6158.3,M,-12.7,M,,*7B
$GPVTG,485.9,T,474.8,M,267.7,N,492.3,K,M*28
$GPGGA 081958.83 8649.77 N
$GPGGA 081958.83 8914.72 N
$GPGGA,081958.83,4557.69,N,99999.99,E,1,11,2.4,4255.6,M,-5.8,M,,*49
$GPGGA,081958.83,0128.25,N
$GPGGA,081958.83,0801.82,N,17815.02,E,1,10,2.1,5867.8,M,33.0,M,,*XX
$GPGGA 081958.83 3446.49 N
$GPGGA,081958.83,3736.99,N
$GPRMC,081958.83,A,7622.70,N,11045.54,E,17.0,302.9,999999,105.4,W*74
$GPGGA,081958.83,8103.01,N,17415.30,E,1,07,0.8,2696.9,M,48.0,M,,*XX
$GPGGA,081958.83,XXYY.ZZ,N,10502.02,E,1,01,3.0,4826.4,M,34.6,M,,*51
$GPGGA,081958.83,XXYY.ZZ,N,00942.86,E,1,00,2.9,8824.0,M,13.8,M,,*5C
$GPGGA,081958.83,9999.99,N,08254.03,E,1,11,2.0,2978.2,M,-40.2,M,,*7D
$GPGGA,081958.83,1546.94,N
GPGGA,081958.83,8618.57,N,16855.95,E,1,02,1.8,7924.5,M,-44.9,M,,*7E
$GPGGA,081958.83,,N,,E,1,,,M,,M,,*68
$INVALID_MESSAGE_FORMAT*XX
$GPGGA,081958.83,7515.05,N
$GPGGA 081958.83 8726.63 N
$GPRMC,081958.83,A,1749.74,N,17900.61,E,28.1,301.0,999999,12.3,W*45
$INVALID_MESSAGE_FORMAT*XX
$GPVTG,412.6,T,417.0,M,203.1,N,497.2,K,M*24
GPGGA,081958.83,8612.87,N,17316.98,E,1,12,1.0,5787.8,M,-33.8,M,,*79
$GPGGA,081958.83,5255.24,N
GPGGA,081958.83,4509.48,N,02057.98,E,1,02,2.5,238.2,M,25.3,M,,*65
$GPGGA,081958.83,9999.99,N,07649.23,E,1,01,1.1,6758.4,M,16.0,M,,*59
$GPGGA,081958.83,1843.06,N,03838.97,E,1,02,0.9,8551.8,M,41.6,M,,
$INVALID_MESSAGE_FORMAT*XX
$GPRMC,259999.99,A,1641.85,N,02134.79,E,6.9,322.2,090126,78.7,W*72
$GPGGA,081958.83,0858.50,N,99999.99,E,1,11,0.6,3819.7,M,-10.4,M,,*79
$GPGGA,081958.83,9999.99,N,14405.57,E,1,12,2.7,9392.1,M,12.7,M,,*5E
$GPGGA,081958.83,4935.64,N,99999.99,E,1,04,1.3,1351.2,M,9.8,M,,*69
$GPGGA,081958.83,9999.99,N,06055.55,E,1,12,1.9,1901.1,M,45.3,M,,*5D
$GPVTG,423.9,T,494.0,M,202.8,N,493.6,K,M*2A
$GPRMC,259999.99,A,1833.05,N,18038.53,E,48.8,44.8,090126,74.6,W*70
$GPGGA,081958.83,4110.09,N,11829.82,E,1,10,1.1,7800.3,M,29.1,M,,EXTRA,FIELD,1,2,3*71
$GPGGA,081958.83,9999.99,N,07347.94,E,1,00,2.9,7348.4,M,13.8,M,,*5D
$INVALID_MESSAGE_FORMAT*XX
GPGGA,081958.83,0330.44,N,11016.26,E,1,06,0.7,-40.4,M,22.1,M,,*74
$GPGGA 081958.83 2245.10 N
$GPGGA,081958.83,9057.70,N,09142.57,E,1,04,2.6,4112.2,M,-45.6,M,,EXTRA,FIELD,1,2,3*5C
$GPGGA,081958.83,2023.90,N,99999.99,E,1,10,1.3,9579.2,M,-42.5,M,,*74
$GPRMC,259999.99,A,8309.70,N,17346.50,E,22.3,97.6,090126,131.9,W*47
$GPGGA,081958.83,5819.86,N,12817.45,E,1,11,1.0,1754.1,M,14.8,M,,*XX
$INVALID_MESSAGE_FORMAT*XX
$GPVTG,488.9,T,411.2,M,270.4,N,402.2,K,M*21
$GPGGA,081958.83,8422.78,N,10217.79,E,1,02,1.3,7252.6,M,36.0,M,,
$INVALID_MESSAGE_FORMAT*XX
$GPRMC,259999.99,A,6646.91,N,08500.13,E,41.2,252.8,090126,69.5,W*44
$GPGGA,081958.83,6011.16,N
$GPGGA,081958.83,2813.69,N
$GPRMC,259999.99,A,1500.38,N,11900.19,E,29.4,291.8,090126,9.0,W*7B
$GPGGA,081958.83,XXYY.ZZ,N,12411.57,E,1,12,1.7,7582.2,M,-38.7,M,,*71
$GPGGA,081958.83,9999.99,N,14152.63,E,1,00,1.9,934.9,M,-1.7,M,,*78
$GPVTG,417.5,T,457.3,M,214.8,N,470.4,K,M*25
$GPGGA 081958.83 4754.74 N
$GPGGA,081958.83,8120.97,N,09221.82,E,1,12,2.6,2201.9,M,-41.5,M,,*XX
$GPRMC,259999.99,A,5744.38,N,06856.34,E,31.8,60.9,090126,11.7,W*70
$GPRMC,259999.99,A,7422.13,N,02321.73,E,47.9,163.4,090126,177.8,W*75
$GPGGA,081958.83,,N,,E,1,,,M,,M,,*68
GPGGA,081958.83,2141.77,N,13128.34,E,1,01,0.7,4727.2,M,29.1,M,,*5A
$GPVTG,437.4,T,437.2,M,228.5,N,454.1,K,M*20
$GPRMC,081958.83,A,5617.20,N,15250.10,E,25.1,211.7,999999,43.2,W*4F
$GPGGA,081958.83,6027.43,N,99999.99,E,1,12,1.0,2037.1,M,-26.0,M,,*7B
$GPGGA,081958.83,6027.64,N
$GPGGA,081958.83,7246.34,N,99999.99,E,1,06,2.4,6225.7,M,31.6,M,,*53
$INVALID_MESSAGE_FORMAT*XX
$GPGGA,081958.83,4625.61,N,15724.18,E,1,07,1.7,5871.7,M,35.2,M,,
$GPGGA,081958.83,6042.64,N,99999.99,E,1,02,2.0,154.8,M,-13.9,M,,*4F
$GPGGA,081958.83,9999.99,N,04906.41,E,1,00,1.6,8526.7,M,41.8,M,,*50
$GPRMC,259999.99,A,8052.76,N,06034.69,E,1.0,44.4,090126,86.2,W*48
$INVALID_MESSAGE_FORMAT*XX
$GPGGA 081958.83 3452.76 N
$INVALID_MESSAGE_FORMAT*XX
$GPGGA,081958.83,1533.83,N,16916.23,E,1,01,2.7,4567.1,M,-7.5,M,,*XX
$GPGGA,081958.83,1842.43,N
GPGGA,081958.83,1007.37,N,03923.76,E,1,01,2.4,3125.9,M,20.1,M,,*5A
$GPGGA,081958.83,7519.70,N,99999.99,E,1,11,2.5,8625.6,M,5.7,M,,*64
$GPGGA,081958.83,XXYY.ZZ,N,13325.31,E,1,03,2.4,7299.8,M,42.8,M,,*58
GPGGA,081958.83,6006.88,N,13518.39,E,1,01,0.6,9288.5,M,48.9,M,,*52
$GPRMC,259999.99,A,0414.26,N,06714.59,E,37.5,325.4,090126,153.5,W*7F
$GPGGA,081958.83,9999.99,N,02005.50,E,1,02,1.4,1280.1,M,44.1,M,,*54
$INVALID_MESSAGE_FORMAT*XX
$GPGGA,081958.83,6502.44,N,02554.96,E,1,05,1.2,5960.6,M,-16.2,M,,
$INVALID_MESSAGE_FORMAT*XX
$GPGGA,081958.83,9999.99,N,02942.85,E,1,07,1.9,1833.7,M,17.5,M,,*58
$GPRMC,081958.83,A,6456.95,N,02403.14,E,29.4,333.8,999999,16.6,W*44
$GPGGA,081958.83,9999.99,N,07904.16,E,1,07,2.1,2828.6,M,7.2,M,,*60
$GPGGA,081958.83,0208.03,N,14534.39,E,1,08,1.4,344.6,M,-19.7,M,,EXTRA,FIELD,1,2,3*6C
$GPGGA,081958.83,8430.23,N,11539.29,E,1,07,1.8,1306.7,M,22.5,M,,EXTRA,FIELD,1,2,3*70
$GPGGA,081958.83,7146.16,N,99999.99,E,1,01,0.6,84.4,M,-25.9,M,,*7C
$GPGGA 081958.83 3325.87 N
$GPGGA,081958.83,6933.13,N,99999.99,E,1,01,1.6,9941.7,M,-20.2,M,,*77
$GPGGA,081958.83,8721.27,N,05354.58,E,1,03,1.2,-40.3,M,-25.2,M,,EXTRA,FIELD,1,2,3*73
$GPRMC,081958.83,A,0340.95,N,10741.12,E,38.1,56.4,999999,130.8,W*40
$GPRMC,259999.99,A,6638.98,N,10520.97,E,33.4,205.4,090126,101.5,W*71
$GPGGA 081958.83 1310.37 N
$GPGGA,081958.83,9999.99,N,04623.05,E,1,09,2.5,9290.3,M,4.1,M,,*66
$GPGGA,081958.83,,N,,E,1,,,M,,M,,*68
$GPVTG,427.9,T,429.7,M,293.8,N,461.4,K,M*28
$INVALID_MESSAGE_FORMAT*XX
GPGGA,081958.83,5603.34,N,10625.87,E,1,00,2.9,1481.7,M,41.1,M,,*56
$GPRMC,259999.99,A,7856.66,N,07311.22,E,25.6,199.2,090126,106.3,W*7F
$GPGGA,081958.83,9999.99,N,07043.22,E,1,01,1.2,7542.2,M,-29.8,M,,*70
$GPGGA,081958.83,4356.73,N,01227.70,E,1,10,1.1,6182.5,M,-24.1,M,,*XX
GPGGA,081958.83,1724.55,N,11820.12,E,1,12,0.8,3802.5,M,-14.3,M,,*7F
$GPVTG,478.9,T,472.5,M,283.5,N,403.7,K,M*25
$GPGGA,081958.83,6459.11,N,11212.87,E,1,02,0.6,7312.7,M,-26.4,M,,
$GPGGA,081958.83,,N,,E,1,,,M,,M,,*68
$GPGGA,081958.83,9038.10,N,05858.40,E,1,01,2.9,8239.2,M,11.4,M,,*XX
$GPGGA,081958.83,2733.20,N,99999.99,E,1,03,0.6,3621.1,M,-15.6,M,,*79
$GPGGA 081958.83 0225.60 N
$GPGGA,081958.83,XXYY.ZZ,N,00221.03,E,1,01,1.3,6454.1,M,2.3,M,,*68
$GPGGA,081958.83,6933.06,N,06246.25,E,1,10,1.2,5763.8,M,-39.1,M,,*XX
$INVALID_MESSAGE_FORMAT*XX
$GPGGA,081958.83,3428.18,N,01929.98,E,1,02,1.8,6025.2,M,-17.5,M,,*XX
$GPGGA,081958.83,5710.83,N,99999.99,E,1,10,1.8,856.2,M,44.0,M,,*6A
$GPGGA,081958.83,0213.13,N,03027.25,E,1,04,2.8,1139.2,M,48.5,M,,*XX
$GPGGA,081958.83,7357.42,N,08751.44,E,1,06,1.2,9316.8,M,-44.7,M,,*XX
$GPGGA,081958.83,0044.95,N,99999.99,E,1,09,2.5,6403.7,M,-25.9,M,,*74
$GPRMC,259999.99,A,4659.74,N,10631.67,E,27.1,136.2,090126,95.1,W*47
$GPGGA,081958.83,1706.33,N,08351.22,E,1,08,0.8,2215.4,M,12.7,M,,*XX
$GPGGA,081958.83,2834.60,N
$GPGGA,081958.83,XXYY.ZZ,N,14212.21,E,1,12,2.6,1939.7,M,43.5,M,,*5D
GPGGA,081958.83,5712.57,N,05230.09,E,1,05,1.0,11.0,M,1.7,M,,*66
$GPGGA,081958.83,XXYY.ZZ,N,10846.67,E,1,12,0.6,7459.8,M,48.0,M,,*5E
GPGGA,081958.83,5125.58,N,14051.42,E,1,11,2.3,1780.6,M,5.4,M,,*6B
$GPGGA,081958.83,8210.68,N,13237.43,E,1,11,1.1,5361.5,M,45.5,M,,*XX
$GPGGA,081958.83,7815.06,N,14538.74,E,1,04,1.3,1934.1,M,41.2,M,,
$GPGGA,081958.83,2835.35,N,10002.31,E,1,03,1.7,9372.1,M,22.6,M,,
$GPGGA,081958.83,9999.99,N,10043.42,E,1,04,3.0,3827.9,M,1.1,M,,*6A
$GPGGA 081958.83 4447.02 N
$GPGGA,081958.83,9999.99,N,16840.79,E,1,09,0.7,9275.3,M,-41.6,M,,*75
$GPRMC,259999.99,A,3121.89,N,14210.02,E,21.2,292.4,090126,105.0,W*7D
$GPGGA,081958.83,7954.97,N,07654.01,E,1,08,1.2,1807.5,M,10.1,M,,EXTRA,FIELD,1,2,3*72
$GPGGA 081958.83 1358.16 N
$GPGGA,081958.83,9999.99,N,12524.31,E,1,02,0.5,4527.5,M,-9.6,M,,*4C
$GPGGA,081958.83,9999.99,N,16338.76,E,1,06,2.8,6034.8,M,-1.2,M,,*4F
$GPGGA,081958.83,5609.84,N,99999.99,E,1,07,1.0,4756.2,M,-30.6,M,,*79
$GPVTG,484.2,T,467.1,M,210.7,N,434.1,K,M*27
$GPGGA,081958.83,9999.99,N,01019.33,E,1,11,2.7,7495.6,M,-5.4,M,,*43
$GPRMC,081958.83,A,7425.96,N,04216.85,E,20.7,127.3,999999,93.8,W*4B
$GPGGA,081958.83,1509.82,N,08336.88,E,1,05,1.3,7149.1,M,1.2,M,,EXTRA,FIELD,1,2,3*45
$GPGGA 081958.83 4531.97 N
$GPGGA,081958.83,7948.29,N,99999.99,E,1,05,0.5,6684.4,M,18.5,M,,*5E
$GPGGA,081958.83,5100.93,N
$GPRMC,259999.99,A,3132.74,N,03153.29,E,7.5,5.9,090126,43.9,W*7E
GPGGA,081958.83,2115.61,N,09501.35,E,1,11,2.3,1275.9,M,45.2,M,,*5B
$GPGGA,081958.83,XXYY.ZZ,N,07915.77,E,1,02,1.3,7431.8,M,-15.2,M,,*72
$GPRMC,081958.83,A,4330.22,N,06119.80,E,32.6,39.3,999999,114.2,W*47
$GPGGA,081958.83,3753.48,N
$GPGGA 081958.83 0905.27 N
$GPGGA,081958.83,7043.21,N,99999.99,E,1,07,1.5,9304.7,M,-25.2,M,,*72
$GPGGA,081958.83,7815.20,N,07540.42,E,1,11,2.8,7773.6,M,4.8,M,,EXTRA,FIELD,1,2,3*4F
$GPVTG,412.0,T,485.7,M,272.7,N,460.4,K,M*20
$GPVTG,405.5,T,497.7,M,256.3,N,494.3,K,M*2E
$GPRMC,259999.99,A,5212.57,N,08022.98,E,21.6,83.2,090126,148.6,W*49
$GPGGA 081958.83 6235.41 N
$GPVTG,413.2,T,460.3,M,245.0,N,498.7,K,M*2B
GPGGA,081958.83,2839.46,N,13111.28,E,1,07,1.9,880.8,M,-5.9,M,,*77
GPGGA,081958.83,5440.91,N,15018.69,E,1,06,2.2,1620.3,M,-36.4,M,,*79
$GPRMC,259999.99,A,2337.03,N,15121.96,E,38.6,289.5,090126,7.6,W*74
$GPGGA,081958.83,8834.74,N,99999.99,E,1,00,1.7,4996.2,M,36.0,M,,*54
$INVALID_MESSAGE_FORMAT*XX
$GPRMC,259999.99,A,3612.45,N,09340.28,E,24.0,323.5,090126,14.3,W*45
$GPGGA,081958.83,1245.46,N,99999.99,E,1,01,2.4,9954.9,M,-31.6,M,,*75
$INVALID_MESSAGE_FORMAT*XX
$GPGGA,081958.83,XXYY.ZZ,N,07440.36,E,1,11,1.6,1028.8,M,33.8,M,,*54
$GPRMC,259999.99,A,0236.51,N,16624.57,E,29.5,270.8,090126,55.9,W*4D
$GPGGA 081958.83 6318.44 N
$GPGGA,081958.83,9999.99,N,03202.45,E,1,08,1.4,588.4,M,32.9,M,,*6C
$GPGGA,081958.83,4320.19,N,99999.99,E,1,12,2.5,8810.5,M,-20.9,M,,*78
$GPRMC,259999.99,A,8216.14,N,01415.40,E,7.9,213.3,090126,146.7,W*45
$GPGGA,081958.83,1139.52,N,02925.32,E,1,03,1.2,7239.0,M,10.0,M,,*XX
GPGGA,081958.83,7641.01,N,04214.43,E,1,00,1.4,5031.7,M,-20.8,M,,*79
$GPRMC,259999.99,A,5036.05,N,13517.40,E,16.9,76.7,090126,86.6,W*71
$GPGGA,081958.83,8625.50,N,09225.04,E,1,09,0.7,1889.2,M,49.6,M,,EXTRA,FIELD,1,2,3*79
$GPGGA,081958.83,7001.25,N,07800.78,E,1,09,1.7,860.1,M,4.3,M,,*XX
$GPGGA,081958.83,XXYY.ZZ,N,12207.31,E,1,02,1.8,3494.9,M,39.0,M,,*5C
$GPVTG,475.9,T,407.7,M,232.3,N,438.6,K,M*2D
$GPGGA 081958.83 4052.55 N
$GPGGA,081958.83,5440.78,N,03811.95,E,1,10,2.9,1335.9,M,-28.0,M,,*XX
$GPGGA 081958.83 0107.24 N
$GPGGA,081958.83,4301.63,N,08202.65,E,1,05,0.9,3047.1,M,-19.8,M,,EXTRA,FIELD,1,2,3*5A
$GPGGA,081958.83,,N,,E,1,,,M,,M,,*68
$GPGGA,081958.83,XXYY.ZZ,N,14442.55,E,1,12,2.3,6185.3,M,-8.3,M,,*40
$GPGGA,081958.83,9999.99,N,02001.07,E,1,04,2.4,5856.3,M,48.7,M,,*5A
$GPGGA 081958.83 1704.63 N
GPGGA,081958.83,7044.08,N,00043.80,E,1,06,0.8,2668.2,M,-8.9,M,,*40
$GPGGA,081958.83,XXYY.ZZ,N,15611.43,E,1,04,2.9,34.2,M,32.7,M,,*53
$GPGGA,081958.83,9999.99,N,02709.59,E,1,05,0.7,5343.7,M,12.1,M,,*5C
$INVALID_MESSAGE_FORMAT*XX
$GPGGA,081958.83,,N,,E,1,,,M,,M,,*68
$GPGGA,081958.83,,N,,E,1,,,M,,M,,*68
$GPGGA,081958.83,,N,,E,1,,,M,,M,,*68
GPGGA,081958.83,2307.04,N,09801.08,E,1,06,1.5,4743.6,M,15.2,M,,*56
$GPGGA,081958.83,,N,,E,1,,,M,,M,,*68
$INVALID_MESSAGE_FORMAT*XX
$GPGGA,081958.83,2715.57,N,99999.99,E,1,05,2.5,9855.4,M,-40.8,M,,*76
$GPGGA,081958.83,,N,,E,1,,,M,,M,,*68
$GPGGA,081958.83,7835.58,N,99999.99,E,1,02,1.8,8736.4,M,-29.5,M,,*71
$GPRMC,081958.83,A,5029.96,N,16803.67,E,38.3,77.5,999999,135.2,W*48
$GPVTG,455.6,T,469.1,M,260.6,N,435.9,K,M*2E
$GPGGA 081958.83 8732.99 N
$GPRMC,259999.99,A,4338.72,N,16537.97,E,43.4,313.2,090126,105.9,W*7D
$GPGGA,081958.83,5423.04,N,00031.90,E,1,01,1.8,9466.6,M,2.4,M,,EXTRA,FIELD,1,2,3*48
$GPGGA,081958.83,XXYY.ZZ,N,16126.82,E,1,12,0.6,5700.7,M,-5.3,M,,*49
$GPGGA,081958.83,9999.99,N,13624.96,E,1,05,1.2,2272.1,M,-8.5,M,,*45
$GPGGA,081958.83,0349.03,N,99999.99,E,1,10,2.1,1851.7,M,36.0,M,,*53
$GPGGA,081958.83,0518.43,N
$GPGGA,081958.83,XXYY.ZZ,N,14238.62,E,1,01,2.6,2947.2,M,29.0,M,,*56
$GPGGA,081958.83,5025.19,N,07030.55,E,1,07,1.4,398.9,M,12.1,M,,
$GPRMC,259999.99,A,6604.54,N,06550.86,E,5.1,185.2,090126,143.3,W*43
$GPGGA,081958.83,XXYY.ZZ,N,14203.64,E,1,01,2.4,3859.7,M,-28.2,M,,*7E
$GPGGA,081958.83,,N,,E,1,,,M,,M,,*68
$GPRMC,081958.83,A,0851.95,N,14126.00,E,39.2,149.0,999999,106.1,W*7E
$GPGGA,081958.83,9999.99,N,11933.40,E,1,07,2.2,1644.3,M,4.9,M,,*69
$INVALID_MESSAGE_FORMAT*XX
GPGGA,081958.83,6855.37,N,10201.31,E,1,11,0.6,2199.4,M,-32.3,M,,*7E
GPGGA,081958.83,3619.43,N,14505.50,E,1,00,1.4,7109.9,M,44.8,M,,*5B
$GPRMC,081958.83,A,4156.38,N,04608.16,E,42.7,288.9,999999,168.6,W*7F
$GPGGA 081958.83 1736.07 N
$GPGGA,081958.83,9999.99,N,09155.49,E,1,10,2.7,3942.0,M,-9.1,M,,*42
$GPRMC,259999.99,A,7216.51,N,08220.06,E,47.2,333.8,090126,70.6,W*42
$GPGGA 081958.83 6342.67 N
$GPGGA 081958.83 6035.34 N
$GPGGA,081958.83,5329.36,N,99999.99,E,1,02,2.3,2102.9,M,15.8,M,,*5C
$GPGGA,081958.83,4040.87,N
$GPGGA,081958.83,3902.90,N,11334.99,E,1,09,1.9,2615.9,M,11.8,M,,EXTRA,FIELD,1,2,3*77
$INVALID_MESSAGE_FORMAT*XX
$GPGGA,081958.83,7757.94,N,02239.04,E,1,06,2.1,1606.9,M,46.5,M,,EXTRA,FIELD,1,2,3*79
$GPGGA,081958.83,XXYY.ZZ,N,13535.28,E,1,07,2.7,3573.5,M,36.3,M,,*52
$GPGGA,081958.83,4345.75,N,12608.47,E,1,10,0.7,4694.3,M,13.1,M,,EXTRA,FIELD,1,2,3*71
$GPRMC,081958.83,A,1737.27,N,18025.47,E,12.7,23.0,999999,107.4,W*41
$GPGGA,081958.83,6444.98,N,99999.99,E,1,11,3.0,2519.1,M,-31.9,M,,*7B
$GPGGA 081958.83 7324.84 N
$GPRMC,081958.83,A,1351.93,N,16559.02,E,24.0,213.0,999999,10.0,W*4B
$GPGGA 081958.83 0545.95 N
$INVALID_MESSAGE_FORMAT*XX
$GPRMC,081958.83,A,1554.82,N,10010.55,E,16.1,197.8,999999,139.7,W*7E
$GPGGA,081958.83,,N,,E,1,,,M,,M,,*68
$GPGGA,081958.83,6753.93,N,99999.99,E,1,02,2.4,2421.9,M,-25.4,M,,*78
$GPGGA,081958.83,8606.95,N,14838.09,E,1,04,1.1,9910.9,M,-47.5,M,,
$GPGGA,081958.83,7748.80,N,99999.99,E,1,08,2.6,3395.4,M,-27.8,M,,*73
$GPGGA 081958.83 0759.55 N
$GPRMC,259999.99,A,1441.94,N,13910.13,E,20.4,89.1,090126,81.8,W*73
$GPGGA,081958.83,8217.48,N,03218.25,E,1,04,2.7,1531.9,M,-6.2,M,,EXTRA,FIELD,1,2,3*6A
GPGGA,081958.83,1451.34,N,13040.08,E,1,12,1.9,510.9,M,0.4,M,,*50
$INVALID_MESSAGE_FORMAT*XX
$GPGGA,081958.83,9999.99,N,08143.83,E,1,06,0.5,7119.8,M,4.2,M,,*6C
$GPGGA,081958.83,,N,,E,1,,,M,,M,,*68
$GPRMC,081958.83,A,6816.84,N,13707.45,E,19.7,141.0,999999,60.4,W*43
$GPGGA,081958.83,4616.89,N,99999.99,E,1,01,1.3,3741.6,M,-38.4,M,,*71
GPGGA,081958.83,6730.72,N,08512.82,E,1,05,0.6,576.9,M,46.9,M,,*6C
$GPRMC,081958.83,A,0106.02,N,13451.27,E,0.9,202.6,999999,166.6,W*46
$GPGGA,081958.83,8141.44,N,06745.20,E,1,01,2.5,8194.8,M,-43.4,M,,*XX
$GPRMC,081958.83,A,4536.52,N,14450.78,E,8.9,36.5,999999,55.5,W*40
$GPGGA,081958.83,0350.09,N,18025.85,E,1,12,0.6,4592.3,M,26.3,M,,EXTRA,FIELD,1,2,3*75
$GPGGA 081958.83 0426.46 N
$GPGGA,081958.83,6127.96,N,08949.28,E,1,12,2.9,1685.0,M,3.9,M,,EXTRA,FIELD,1,2,3*41
$GPGGA,081958.83,0405.35,N,09410.94,E,1,10,1.1,5597.9,M,-21.6,M,,
$GPVTG,497.1,T,466.3,M,291.7,N,497.9,K,M*2D
$GPGGA 081958.83 6102.95 N
$GPGGA,081958.83,8735.77,N,02937.80,E,1,07,2.4,7715.1,M,8.0,M,,EXTRA,FIELD,1,2,3*40
$INVALID_MESSAGE_FORMAT*XX
$GPGGA,081958.83,5207.60,N,06357.49,E,1,01,2.2,4958.7,M,6.2,M,,*XX
$GPGGA,081958.83,XXYY.ZZ,N,03537.73,E,1,01,2.1,3633.2,M,-30.5,M,,*72
GPGGA,081958.83,5346.77,N,08718.45,E,1,03,1.3,67.1,M,49.4,M,,*51
$GPGGA,081958.83,4006.10,N,11743.46,E,1,09,1.2,4227.7,M,14.5,M,,
$GPGGA,081958.83,7913.16,N,04453.74,E,1,01,0.8,9503.7,M,45.4,M,,
$GPGGA,081958.83,2648.16,N
$GPGGA,081958.83,6721.70,N,17226.26,E,1,04,1.5,9233.0,M,42.0,M,,EXTRA,FIELD,1,2,3*7E
$GPGGA,081958.83,7743.68,N
$GPRMC,081958.83,A,8939.77,N,17024.35,E,6.0,331.6,999999,96.3,W*7C
$INVALID_MESSAGE_FORMAT*XX
$GPGGA,081958.83,5730.90,N,16440.13,E,1,07,0.7,4033.2,M,7.5,M,,*XX
$GPGGA,081958.83,4122.56,N,99999.99,E,1,05,1.0,7468.9,M,-11.0,M,,*78
$GPGGA,081958.83,7002.78,N
$GPGGA,081958.83,1649.82,N,05021.83,E,1,09,1.9,7573.7,M,29.1,M,,
$GPGGA,081958.83,0924.65,N,14925.48,E,1,12,2.0,9790.9,M,0.5,M,,
$GPGGA,081958.83,1136.56,N,02128.49,E,1,12,0.5,2008.2,M,-29.4,M,,*XX
$GPGGA 081958.83 2512.22 N
GPGGA,081958.83,2344.49,N,02338.10,E,1,01,0.8,6414.2,M,-49.7,M,,*76
$GPVTG,432.2,T,471.1,M,222.2,N,417.2,K,M*2B
$INVALID_MESSAGE_FORMAT*XX
GPGGA,081958.83,1928.61,N,06430.08,E,1,11,2.1,7985.6,M,-17.4,M,,*7F
$GPGGA,081958.83,,N,,E,1,,,M,,M,,*68
$INVALID_MESSAGE_FORMAT*XX
GPGGA,081958.83,4617.12,N,01214.28,E,1,05,1.0,6379.7,M,15.8,M,,*55
$GPVTG,492.3,T,464.8,M,254.0,N,496.8,K,M*2D
$GPGGA,081958.83,1436.21,N,10739.88,E,1,09,1.8,7537.9,M,-23.5,M,,EXTRA,FIELD,1,2,3*5B
$GPGGA 081958.83 6719.74 N
GPGGA,081958.83,1505.97,N,05803.22,E,1,00,2.6,9566.7,M,47.0,M,,*57
$GPGGA,081958.83,4935.30,N,09339.35,E,1,06,1.4,6252.4,M,-28.7,M,,EXTRA,FIELD,1,2,3*58
$GPGGA 081958.83 3530.41 N
$GPGGA,081958.83,5431.11,N
$GPRMC,081958.83,A,6937.76,N,10403.31,E,30.7,180.6,999999,43.1,W*4F
$GPRMC,081958.83,A,1330.37,N,00818.39,E,22.4,262.0,999999,14.8,W*4D
$GPGGA,081958.83,8300.74,N,07937.67,E,1,00,1.8,6124.5,M,-36.3,M,,*XX
$GPGGA,081958.83,1506.46,N
$GPGGA,081958.83,,N,,E,1,,,M,,M,,*68
$GPRMC,259999.99,A,0918.46,N,18023.46,E,37.9,73.0,090126,123.8,W*48
$GPVTG,403.5,T,484.0,M,204.1,N,493.9,K,M*25
$GPVTG,421.9,T,479.1,M,214.6,N,455.7,K,M*28
$GPRMC,081958.83,A,1234.51,N,10752.84,E,17.2,215.8,999999,51.1,W*4E
$GPRMC,081958.83,A,7129.71,N,09519.83,E,48.4,346.4,999999,150.4,W*75
GPGGA,081958.83,4742.47,N,12132.12,E,1,07,1.3,772.6,M,21.9,M,,*67
$GPRMC,081958.83,A,8310.19,N,01430.75,E,7.3,274.0,999999,58.7,W*75
$GPRMC,081958.83,A,1855.18,N,11856.66,E,34.5,16.5,999999,144.1,W*47
$GPVTG,489.5,T,421.2,M,293.3,N,470.9,K,M*2B
$GPRMC,081958.83,A,3843.40,N,07854.52,E,0.6,128.7,999999,43.5,W*75
$GPGGA,081958.83,,N,,E,1,,,M,,M,,*68
$INVALID_MESSAGE_FORMAT*XX
GPGGA,081958.83,4041.51,N,00448.53,E,1,04,1.4,5561.9,M,-9.5,M,,*4F
$GPGGA,081958.83,,N,,E,1,,,M,,M,,*68
GPGGA,081958.83,3432.17,N,03106.56,E,1,10,2.0,2267.3,M,23.7,M,,*5A
$GPGGA,081958.83,1246.62,N,16545.00,E,1,12,2.8,1872.3,M,20.2,M,,
$GPGGA,081958.83,XXYY.ZZ,N,01652.51,E,1,01,2.4,2067.9,M,6.8,M,,*6D
$GPGGA 081958.83 5015.36 N
$GPRMC,081958.83,A,7424.84,N,06133.11,E,20.9,0.6,999999,89.0,W*4E
$GPGGA,081958.83,3626.68,N,99999.99,E,1,08,0.9,7063.5,M,47.4,M,,*5D
$GPGGA,081958.83,6702.44,N,15309.40,E,1,03,0.6,6350.6,M,42.0,M,,
GPGGA,081958.83,7927.12,N,10117.89,E,1,11,0.9,8982.6,M,19.2,M,,*5B
$GPGGA,081958.83,0453.83,N,08550.39,E,1,09,2.2,5135.2,M,42.1,M,,EXTRA,FIELD,1,2,3*77
$GPGGA,081958.83,2327.07,N,99999.99,E,1,09,1.3,6281.6,M,-20.2,M,,*7D
$INVALID_MESSAGE_FORMAT*XX
$GPRMC,259999.99,A,0143.05,N,09655.47,E,11.6,257.3,090126,143.7,W*7A
$GPGGA,081958.83,6848.93,N,99999.99,E,1,00,2.3,2201.8,M,22.4,M,,*57
$GPGGA,081958.83,6821.52,N
$GPGGA,081958.83,9999.99,N,04156.16,E,1,03,1.1,3532.4,M,-29.8,M,,*75
$GPGGA,081958.83,XXYY.ZZ,N,01432.53,E,1,00,1.3,7037.3,M,-1.2,M,,*44
$GPGGA,081958.83,8236.87,N,99999.99,E,1,01,0.5,495.8,M,31.6,M,,*63
$GPRMC,259999.99,A,0428.57,N,06350.32,E,9.6,324.7,090126,33.7,W*76
$GPGGA,081958.83,,N,,E,1,,,M,,M,,*68
$GPGGA,081958.83,3802.33,N,08803.15,E,1,08,0.9,4167.7,M,49.1,M,,*XX
$GPGGA,081958.83,3436.87,N
$GPVTG,413.2,T,478.7,M,251.3,N,403.0,K,M*25
$GPRMC,259999.99,A,7057.63,N,12154.27,E,45.0,261.0,090126,0.2,W*71
$GPGGA,081958.83,1850.81,N,02359.51,E,1,00,2.1,2563.3,M,43.4,M,,
$GPGGA,081958.83,5618.26,N,02354.10,E,1,11,1.1,2907.4,M,-48.4,M,,
$GPGGA,081958.83,2210.88,N,11512.78,E,1,09,1.7,9641.9,M,-5.7,M,,*XX
$GPGGA,081958.83,XXYY.ZZ,N,11150.74,E,1,07,2.2,8721.8,M,-24.0,M,,*75
$GPGGA,081958.83,1125.44,N,13900.88,E,1,05,1.1,3395.2,M,-39.5,M,,EXTRA,FIELD,1,2,3*57
$GPGGA,081958.83,9999.99,N,01223.20,E,1,05,1.5,8783.7,M,47.9,M,,*52
$GPGGA,081958.83,8636.50,N
$GPGGA,081958.83,,N,,E,1,,,M,,M,,*68
$GPRMC,081958.83,A,3304.89,N,16219.61,E,46.7,208.6,999999,16.9,W*44
$GPGGA 081958.83 4711.34 N
$GPRMC,081958.83,A,8210.30,N,15452.08,E,42.8,6.8,999999,56.4,W*4C
$GPRMC,081958.83,A,4847.71,N,14128.97,E,16.0,300.8,999999,159.9,W*7D
GPGGA,081958.83,0508.38,N,04905.49,E,1,12,2.5,3887.1,M,32.4,M,,*5D
$GPVTG,460.2,T,493.3,M,210.6,N,413.2,K,M*23
GPGGA,081958.83,3056.19,N,16143.50,E,1,03,1.7,4962.7,M,18.3,M,,*57
$GPRMC,081958.83,A,5603.94,N,13911.09,E,5.2,289.6,999999,9.4,W*4C
GPGGA,081958.83,4818.90,N,08307.10,E,1,07,0.8,8973.5,M,37.9,M,,*59
$GPRMC,259999.99,A,2610.91,N,02459.79,E,49.6,157.8,090126,173.4,W*79
$GPRMC,259999.99,A,1422.81,N,05336.03,E,5.3,38.2,090126,21.7,W*46
$GPRMC,259999.99,A,3805.81,N,06757.78,E,17.8,134.3,090126,161.8,W*7F
$GPGGA,081958.83,7342.93,N,05157.36,E,1,03,3.0,5707.8,M,43.4,M,,*XX
$GPGGA,081958.83,9999.99,N,15000.49,E,1,09,2.2,4529.2,M,-36.5,M,,*7F
$INVALID_MESSAGE_FORMAT*XX
$INVALID_MESSAGE_FORMAT*XX
$GPRMC,259999.99,A,1034.91,N,05612.26,E,13.3,161.1,090126,92.1,W*47
$GPGGA,081958.83,4354.19,N,03147.05,E,1,06,2.0,6679.0,M,43.4,M,,*XX
$GPGGA,081958.83,XXYY.ZZ,N,08215.40,E,1,01,2.0,317.1,M,42.9,M,,*68
$GPGGA,081958.83,1442.07,N,12821.86,E,1,00,1.1,6875.2,M,4.8,M,,
$GPRMC,081958.83,A,5207.87,N,00350.48,E,17.6,227.8,999999,12.1,W*44
$GPGGA,081958.83,2104.11,N,17209.21,E,1,10,1.9,5126.2,M,-24.5,M,,
$GPVTG,448.8,T,453.4,M,239.1,N,473.0,K,M*20
$GPGGA,081958.83,1710.72,N,15904.40,E,1,07,1.1,9395.1,M,-13.0,M,,
$GPGGA,081958.83,5855.75,N,08607.50,E,1,08,0.8,8421.0,M,44.2,M,,
$GPGGA,081958.83,4840.82,N,99999.99,E,1,08,1.0,1895.4,M,-10.8,M,,*7D
$GPRMC,081958.83,A,8840.12,N,02534.73,E,31.6,94.3,999999,141.0,W*41
$GPGGA 081958.83 0614.27 N
$GPGGA,081958.83,XXYY.ZZ,N,02733.10,E,1,04,2.9,8516.5,M,-6.3,M,,*46
$GPGGA,081958.83,4430.61,N,09917.20,E,1,11,0.9,7193.9,M,48.9,M,,
$GPGGA,081958.83,XXYY.ZZ,N,12550.03,E,1,07,1.7,73.6,M,34.9,M,,*57
$GPGGA,081958.83,6548.99,N,99999.99,E,1,09,2.0,1127.3,M,35.4,M,,*53
$GPGGA 081958.83 4141.72 N
$GPGGA,081958.83,3626.36,N,03956.77,E,1,07,2.6,2829.8,M,-23.4,M,,EXTRA,FIELD,1,2,3*5D
$GPGGA,081958.83,,N,,E,1,,,M,,M,,*68
$GPVTG,405.3,T,419.6,M,261.1,N,451.7,K,M*24
$GPGGA,081958.83,8410.92,N,00237.63,E,1,01,2.3,8963.8,M,-21.8,M,,*XX
$GPGGA,081958.83,8709.26,N,02022.05,E,1,02,2.5,1545.7,M,-43.6,M,,*XX
$GPGGA,081958.83,1228.18,N,09403.16,E,1,02,1.4,1894.1,M,-26.6,M,,
$GPGGA,081958.83,1141.50,N,16642.97,E,1,04,0.9,4817.2,M,41.6,M,,EXTRA,FIELD,1,2,3*7D
$GPRMC,081958.83,A,3046.84,N,02200.15,E,30.7,356.1,999999,124.4,W*73
$GPGGA 081958.83 1627.23 N
GPGGA,081958.83,3901.01,N,04231.74,E,1,00,2.6,6820.1,M,43.3,M,,*5A
$GPRMC,259999.99,A,7356.42,N,07924.77,E,3.0,116.0,090126,78.5,W*77
$GPGGA,081958.83,0119.03,N,01540.49,E,1,12,1.9,1616.6,M,-13.0,M,,EXTRA,FIELD,1,2,3*57
$GPGGA,081958.83,8608.11,N,99999.99,E,1,00,2.1,6655.5,M,3.3,M,,*63
$GPGGA 081958.83 3907.04 N
$GPGGA,081958.83,8102.81,N,10540.41,E,1,11,2.1,4369.4,M,43.6,M,,
$GPGGA,081958.83,7300.70,N,14247.90,E,1,02,2.6,6348.9,M,5.7,M,,EXTRA,FIELD,1,2,3*48
$GPRMC,259999.99,A,2557.85,N,16034.13,E,19.2,249.7,090126,119.4,W*74
$GPGGA,081958.83,,N,,E,1,,,M,,M,,*68
$GPGGA,081958.83,XXYY.ZZ,N,06155.41,E,1,06,1.7,4619.2,M,-24.3,M,,*78
$GPRMC,259999.99,A,5037.67,N,07625.06,E,7.0,56.7,090126,129.9,W*71
$GPGGA 081958.83 1608.72 N
$GPGGA 081958.83 3939.80 N
$GPGGA 081958.83 8708.00 N
$GPGGA,081958.83,8401.08,N
GPGGA,081958.83,6105.59,N,15440.70,E,1,01,1.9,4664.2,M,-18.2,M,,*7A
$GPGGA,081958.83,2951.82,N,00455.36,E,1,04,3.0,188.6,M,-36.8,M,,*XX
$GPGGA,081958.83,0703.08,N,09528.98,E,1,06,3.0,7051.1,M,44.5,M,,*XX
$GPRMC,259999.99,A,0140.78,N,14204.51,E,4.7,158.9,090126,62.0,W*7E
$INVALID_MESSAGE_FORMAT*XX
$GPRMC,259999.99,A,1912.35,N,01005.62,E,19.7,32.5,090126,87.9,W*71
$GPVTG,492.7,T,437.8,M,215.6,N,498.2,K,M*28
$GPGGA,081958.83,1800.66,N,99999.99,E,1,05,0.6,5332.0,M,6.2,M,,*6A
$GPGGA,081958.83,,N,,E,1,,,M,,M,,*68
$GPGGA,081958.83,3322.13,N
$GPRMC,259999.99,A,0718.27,N,02426.51,E,25.6,236.9,090126,138.9,W*70
$GPGGA,081958.83,5551.70,N,12524.97,E,1,06,2.2,3233.5,M,-36.8,M,,EXTRA,FIELD,1,2,3*5D
$GPGGA 081958.83 2811.62 N
$GPGGA,081958.83,9999.99,N,03801.96,E,1,01,3.0,9987.9,M,27.7,M,,*59
$GPGGA,081958.83,7939.29,N,16011.46,E,1,11,1.7,4176.2,M,39.1,M,,*XX
$INVALID_MESSAGE_FORMAT*XX
$GPRMC,259999.99,A,6850.60,N,14728.55,E,11.5,224.4,090126,18.2,W*4A
$GPGGA,081958.83,3716.41,N,13409.42,E,1,04,2.4,2552.9,M,-19.9,M,,
$GPGGA,081958.83,,N,,E,1,,,M,,M,,*68
$GPGGA 081958.83 3411.59 N
$GPRMC,081958.83,A,0947.90,N,16839.65,E,32.6,96.3,999999,111.3,W*40
$GPGGA,081958.83,6305.39,N
$GPGGA,081958.83,,N,,E,1,,,M,,M,,*68
$GPGGA,081958.83,2800.61,N,01337.97,E,1,10,2.5,1769.6,M,-12.7,M,,EXTRA,FIELD,1,2,3*57
$GPRMC,259999.99,A,9059.87,N,13735.17,E,14.5,63.9,090126,24.8,W*7C
$GPGGA,081958.83,5734.88,N,06219.05,E,1,02,1.3,6302.3,M,47.9,M,,
$GPRMC,081958.83,A,5359.30,N,16622.70,E,30.3,175.8,999999,129.3,W*71
$GPRMC,081958.83,A,5539.54,N,10756.12,E,49.7,187.7,999999,131.9,W*78
$GPRMC,259999.99,A,7650.40,N,09156.95,E,47.5,198.3,090126,113.3,W*73
$GPGGA,081958.83,7827.17,N,08729.18,E,1,06,1.3,6072.2,M,6.2,M,,
$GPGGA,081958.83,1939.04,N
$GPGGA,081958.83,,N,,E,1,,,M,,M,,*68
$GPGGA,081958.83,6751.43,N,02458.96,E,1,01,2.9,5489.8,M,34.7,M,,
$GPGGA,081958.83,4801.10,N,03604.34,E,1,06,1.6,9313.9,M,28.1,M,,
$GPVTG,430.9,T,419.2,M,271.2,N,404.8,K,M*21
$GPGGA,081958.83,5632.42,N,01656.64,E,1,05,2.4,7477.8,M,-30.0,M,,EXTRA,FIELD,1,2,3*56
$INVALID_MESSAGE_FORMAT*XX
$GPVTG,462.3,T,442.5,M,211.7,N,460.6,K,M*2A
$GPRMC,259999.99,A,8807.56,N,00558.20,E,20.4,74.9,090126,7.5,W*41
$GPGGA,081958.83,,N,,E,1,,,M,,M,,*68
$GPGGA,081958.83,6852.14,N,99999.99,E,1,02,1.1,3296.8,M,12.5,M,,*5D
$GPGGA,081958.83,XXYY.ZZ,N,07217.74,E,1,12,2.3,3388.3,M,41.7,M,,*59
$GPGGA,081958.83,XXYY.ZZ,N,08801.80,E,1,02,0.8,2861.9,M,-32.0,M,,*71
$GPGGA,081958.83,9999.99,N,10918.80,E,1,05,0.9,5715.1,M,-30.0,M,,*76
GPGGA,081958.83,6500.56,N,04425.87,E,1,07,1.2,5077.6,M,3.5,M,,*63
$GPGGA,081958.83,XXYY.ZZ,N,06912.14,E,1,07,2.3,2968.4,M,-20.7,M,,*7C
$GPGGA,081958.83,3812.25,N,14427.61,E,1,11,0.7,6042.0,M,-46.4,M,,*XX
$GPGGA,081958.83,6319.66,N,13943.94,E,1,08,1.1,3333.8,M,-35.8,M,,*XX
$GPRMC,081958.83,A,7107.31,N,02745.58,E,4.4,224.1,999999,73.9,W*7E
$GPVTG,453.9,T,496.0,M,212.9,N,489.1,K,M*23
$GPGGA,081958.83,3355.95,N
$GPGGA,081958.83,3153.13,N,14024.31,E,1,12,2.1,2364.6,M,-31.4,M,,EXTRA,FIELD,1,2,3*5B
$GPGGA,081958.83,,N,,E,1,,,M,,M,,*68
$GPRMC,259999.99,A,6524.95,N,07911.49,E,31.5,300.8,090126,16.6,W*46
$GPGGA,081958.83,4028.57,N,01948.46,E,1,05,1.1,8767.6,M,-4.3,M,,EXTRA,FIELD,1,2,3*6F
$GPRMC,081958.83,A,0958.79,N,05059.80,E,38.1,105.9,999999,54.5,W*44
$GPGGA,081958.83,,N,,E,1,,,M,,M,,*68
$GPRMC,259999.99,A,8315.12,N,15143.48,E,2.3,177.6,090126,163.0,W*41
$GPGGA,081958.83,9999.99,N,02100.95,E,1,03,0.7,3736.2,M,-48.0,M,,*73
$GPGGA,081958.83,5410.66,N,99999.99,E,1,05,1.3,4789.0,M,48.0,M,,*5A
$GPGGA 081958.83 4916.89 N
$GPGGA,081958.83,6159.12,N,15301.23,E,1,07,2.1,6226.3,M,32.0,M,,
$GPGGA,081958.83,2432.06,N,00322.77,E,1,10,0.7,2579.3,M,1.3,M,,*XX
$GPGGA,081958.83,,N,,E,1,,,M,,M,,*68
$GPGGA,081958.83,2129.64,N,16355.44,E,1,06,0.9,9315.5,M,28.3,M,,EXTRA,FIELD,1,2,3*71
$GPGGA,081958.83,6342.12,N,01227.38,E,1,00,2.9,7107.9,M,-36.3,M,,EXTRA,FIELD,1,2,3*57
$GPGGA,081958.83,9003.85,N,99999.99,E,1,07,1.6,7720.8,M,9.4,M,,*63
$GPGGA,081958.83,1613.63,N,08332.68,E,1,10,2.1,4348.9,M,-22.5,M,,EXTRA,FIELD,1,2,3*5E
$GPGGA,081958.83,4652.00,N,99999.99,E,1,02,1.7,6004.3,M,7.6,M,,*62
$GPGGA,081958.83,4930.08,N,11831.35,E,1,01,2.3,4220.3,M,-47.5,M,,
$GPGGA,081958.83,1418.11,N,08814.04,E,1,00,2.3,9642.4,M,6.8,M,,
$GPGGA,081958.83,7235.57,N,15251.86,E,1,02,2.4,6487.1,M,-32.7,M,,EXTRA,FIELD,1,2,3*5C
$GPGGA 081958.83 5040.69 N
$GPGGA,081958.83,9999.99,N,15540.90,E,1,12,1.9,417.2,M,48.4,M,,*65
$GPGGA,081958.83,1937.68,N,03212.73,E,1,00,0.9,5388.4,M,35.7,M,,*XX
$GPGGA,081958.83,4055.01,N,03212.19,E,1,10,2.4,434.4,M,44.9,M,,
$GPGGA,081958.83,,N,,E,1,,,M,,M,,*68
$GPGGA,081958.83,3001.44,N,05228.28,E,1,06,1.0,68.9,M,19.3,M,,*XX
$GPVTG,446.7,T,435.0,M,288.9,N,441.7,K,M*21
$GPGGA,081958.83,1105.62,N,13701.35,E,1,04,2.0,29.9,M,-12.5,M,,
$GPGGA,081958.83,4142.19,N
$INVALID_MESSAGE_FORMAT*XX
$GPGGA,081958.83,6745.25,N,16904.66,E,1,07,2.7,3508.3,M,46.1,M,,*XX
$GPRMC,081958.83,A,3227.62,N,03849.79,E,44.9,161.8,999999,103.0,W*71
$GPGGA,081958.83,,N,,E,1,,,M,,M,,*68
GPGGA,081958.83,1908.39,N,04336.68,E,1,06,1.0,3654.8,M,-20.9,M,,*71
$GPGGA,081958.83,,N,,E,1,,,M,,M,,*68
$GPGGA,081958.83,XXYY.ZZ,N,10443.86,E,1,05,1.8,1676.4,M,-38.6,M,,*78
$GPGGA,081958.83,0515.74,N,15939.55,E,1,12,1.3,4235.3,M,-29.9,M,,EXTRA,FIELD,1,2,3*5A
GPGGA,081958.83,2022.02,N,01555.28,E,1,12,2.7,5112.4,M,-30.4,M,,*7B
GPGGA,081958.83,6722.08,N,10126.46,E,1,04,0.7,1038.6,M,-28.4,M,,*79
$GPGGA,081958.83,0622.38,N,05348.05,E,1,10,0.6,4556.5,M,4.8,M,,
$GPGGA,081958.83,9999.99,N,16433.04,E,1,00,2.4,5626.0,M,17.4,M,,*5E
$INVALID_MESSAGE_FORMAT*XX
$GPGGA,081958.83,9999.99,N,03520.71,E,1,05,1.7,8302.0,M,-26.1,M,,*7A
$GPGGA,081958.83,,N,,E,1,,,M,,M,,*68
$GPGGA,081958.83,XXYY.ZZ,N,03454.50,E,1,03,2.0,405.8,M,12.6,M,,*64
$GPGGA 081958.83 1945.87 N
$GPRMC,081958.83,A,1210.87,N,02629.74,E,17.4,330.7,999999,136.8,W*74
$GPGGA,081958.83,0026.35,N,11315.36,E,1,11,1.4,4888.4,M,-13.7,M,,EXTRA,FIELD,1,2,3*57
$GPGGA,081958.83,,N,,E,1,,,M,,M,,*68
GPGGA,081958.83,2136.54,N,07114.87,E,1,12,1.8,4367.8,M,35.6,M,,*55
$GPGGA,081958.83,XXYY.ZZ,N,15702.00,E,1,01,0.9,6116.1,M,-48.0,M,,*73
$GPGGA,081958.83,2926.65,N,13110.29,E,1,01,2.8,3058.8,M,31.9,M,,EXTRA,FIELD,1,2,3*71
$GPGGA,081958.83,3319.50,N,99999.99,E,1,12,1.4,8949.9,M,43.8,M,,*52
$GPGGA,081958.83,8727.55,N,05537.14,E,1,05,1.2,5097.2,M,-30.2,M,,
$GPRMC,081958.83,A,8905.28,N,10842.14,E,25.2,196.6,999999,2.3,W*74
$GPGGA,081958.83,,N,,E,1,,,M,,M,,*68
$GPGGA,081958.83,8356.54,N
$GPGGA,081958.83,XXYY.ZZ,N,13234.93,E,1,10,1.5,6414.4,M,-17.8,M,,*72
$GPGGA,081958.83,9999.99,N,13552.65,E,1,04,2.8,7659.1,M,-46.1,M,,*75
$GPRMC,081958.83,A,5642.31,N,18020.63,E,17.6,23.2,999999,18.3,W*7C
$GPGGA,081958.83,7952.43,N
$GPRMC,081958.83,A,0007.90,N,09718.09,E,9.2,56.7,999999,104.2,W*74
$GPGGA,081958.83,3702.35,N,07432.68,E,1,07,2.7,6234.7,M,-43.3,M,,*XX
$GPGGA,081958.83,1533.15,N,13752.11,E,1,05,1.0,730.2,M,20.0,M,,EXTRA,FIELD,1,2,3*40
$GPGGA,081958.83,9999.99,N,15228.86,E,1,09,2.6,9665.3,M,13.1,M,,*59
GPGGA,081958.83,0328.76,N,05343.38,E,1,08,2.1,82.5,M,-48.8,M,,*75
GPGGA,081958.83,0001.28,N,02110.67,E,1,01,2.2,2933.6,M,-49.7,M,,*79
$GPGGA 081958.83 3018.91 N
$GPGGA,081958.83,0102.28,N,09912.36,E,1,10,2.4,154.6,M,11.6,M,,EXTRA,FIELD,1,2,3*4A
$GPGGA,081958.83,,N,,E,1,,,M,,M,,*68
$GPGGA,081958.83,9999.99,N,15719.66,E,1,07,1.5,7645.3,M,30.4,M,,*56
$GPRMC,259999.99,A,5727.51,N,09406.67,E,31.3,125.4,090126,154.2,W*79
GPGGA,081958.83,4025.86,N,17449.22,E,1,07,1.2,-87.9,M,-20.4,M,,*5C
GPGGA,081958.83,1153.11,N,13423.55,E,1,09,1.4,4632.5,M,-37.1,M,,*79
$GPVTG,421.4,T,457.6,M,299.8,N,420.1,K,M*21
GPGGA,081958.83,5636.71,N,09626.77,E,1,01,0.6,8087.2,M,-7.5,M,,*4C
$GPGGA,081958.83,9999.99,N,08823.01,E,1,12,2.9,173.7,M,44.3,M,,*63
$GPGGA,081958.83,8601.33,N,13230.35,E,1,05,2.5,5516.8,M,26.7,M,,
$INVALID_MESSAGE_FORMAT*XX
$GPGGA,081958.83,1312.53,N
$GPGGA,081958.83,XXYY.ZZ,N,12918.97,E,1,04,1.2,5158.5,M,-33.3,M,,*72
$GPGGA,081958.83,XXYY.ZZ,N,17459.01,E,1,01,1.2,3333.6,M,11.4,M,,*55
$GPRMC,259999.99,A,3053.08,N,11446.41,E,27.8,49.5,090126,39.1,W*71
$GPVTG,405.0,T,412.6,M,219.3,N,467.6,K,M*25
GPGGA,081958.83,2131.95,N,04939.03,E,1,04,1.9,1875.7,M,29.2,M,,*5A
$GPRMC,081958.83,A,6455.25,N,06423.10,E,44.9,161.4,999999,58.3,W*4E
$GPGGA,081958.83,4202.90,N,12854.08,E,1,05,1.5,7265.1,M,34.1,M,,*XX
GPGGA,081958.83,2137.34,N,02851.11,E,1,00,0.7,8006.6,M,21.5,M,,*5D
$GPGGA,081958.83,9999.99,N,16341.43,E,1,03,3.0,8588.8,M,-45.1,M,,*74
$GPGGA,081958.83,9999.99,N,02834.74,E,1,07,2.1,124.5,M,-9.8,M,,*7E
$GPVTG,460.0,T,402.8,M,293.3,N,492.9,K,M*2E
$GPGGA,081958.83,4657.40,N,01818.59,E,1,10,2.9,3565.8,M,9.1,M,,
$INVALID_MESSAGE_FORMAT*XX
$GPGGA,081958.83,6040.41,N,04232.59,E,1,00,2.7,6697.0,M,0.3,M,,EXTRA,FIELD,1,2,3*46
$GPGGA,081958.83,9999.99,N,07436.85,E,1,05,2.1,3872.4,M,21.2,M,,*5C
$GPGGA,081958.83,5248.35,N,99999.99,E,1,11,1.9,3862.5,M,45.2,M,,*5F
$GPGGA,081958.83,9999.99,N,00809.00,E,1,01,1.2,5106.1,M,-45.0,M,,*76
$GPGGA,081958.83,XXYY.ZZ,N,04108.86,E,1,03,1.7,844.0,M,-43.2,M,,*4C
$GPGGA,081958.83,7004.29,N,99999.99,E,1,12,2.6,7776.1,M,23.7,M,,*5A
$GPGGA,081958.83,3218.14,N
$GPGGA,081958.83,9999.99,N,03147.51,E,1,01,1.4,1337.6,M,31.6,M,,*5F
$GPGGA 081958.83 7533.72 N
$GPGGA,081958.83,XXYY.ZZ,N,03758.29,E,1,04,2.7,2451.2,M,3.9,M,,*63
GPGGA,081958.83,2137.22,N,09106.39,E,1,07,2.0,4223.6,M,-45.1,M,,*70
$GPGGA,081958.83,,N,,E,1,,,M,,M,,*68
$GPRMC,081958.83,A,3517.14,N,05611.56,E,42.9,194.9,999999,11.0,W*43
$GPGGA,081958.83,9999.99,N,05452.33,E,1,02,1.5,1398.4,M,-35.7,M,,*71
$GPGGA,081958.83,XXYY.ZZ,N,15739.21,E,1,11,1.9,2392.2,M,-11.4,M,,*79
$GPGGA,081958.83,9999.99,N,17817.17,E,1,10,1.4,8803.8,M,-40.7,M,,*75
$GPGGA,081958.83,XXYY.ZZ,N,05503.41,E,1,01,2.7,5092.5,M,-36.5,M,,*7E
$GPRMC,259999.99,A,5356.74,N,01216.53,E,11.0,241.8,090126,105.8,W*76
$GPGGA,081958.83,5434.26,N
$GPGGA,081958.83,2737.67,N,99999.99,E,1,01,2.7,3196.9,M,-19.3,M,,*75
$GPGGA,081958.83,3739.32,N,03834.87,E,1,08,2.3,2606.0,M,-29.9,M,,*XX
$GPGGA 081958.83 6532.92 N
$GPGGA 081958.83 1656.38 N
$GPGGA,081958.83,4931.98,N,11426.19,E,1,08,1.3,599.4,M,41.0,M,,*XX
$GPRMC,259999.99,A,4216.48,N,00119.77,E,28.5,292.9,090126,177.3,W*78
$GPGGA,081958.83,2416.78,N
$GPGGA 081958.83 7244.15 N
$GPGGA,081958.83,,N,,E,1,,,M,,M,,*68
$GPGGA 081958.83 6101.82 N
$GPGGA 081958.83 1958.46 N
$GPGGA,081958.83,1337.70,N,16242.84,E,1,07,0.8,6351.2,M,14.8,M,,EXTRA,FIELD,1,2,3*7D
$GPRMC,081958.83,A,2602.67,N,05443.75,E,38.6,152.2,999999,18.6,W*49
$GPGGA,081958.83,2311.17,N,13028.88,E,1,08,1.1,4420.6,M,5.1,M,,
$GPGGA 081958.83 8742.33 N
$GPGGA,081958.83,3207.91,N,99999.99,E,1,10,2.5,9403.2,M,36.2,M,,*50
$GPRMC,081958.83,A,3844.17,N,01614.66,E,0.2,328.8,999999,8.6,W*4E
$GPGGA,081958.83,6607.95,N,03910.83,E,1,06,1.9,9664.3,M,15.8,M,,*XX
$GPVTG,447.8,T,476.9,M,256.4,N,472.2,K,M*2A
$GPGGA,081958.83,8732.07,N
$GPGGA,081958.83,5255.68,N,99999.99,E,1,05,1.2,5711.1,M,38.0,M,,*54
GPGGA,081958.83,0525.72,N,11130.98,E,1,02,0.7,7631.0,M,-8.3,M,,*4E
$GPGGA,081958.83,9020.45,N,07126.80,E,1,03,2.0,7956.7,M,-22.0,M,,
$GPGGA,081958.83,5030.08,N,10148.55,E,1,03,2.4,2742.5,M,18.3,M,,
$GPGGA,081958.83,7910.35,N,14525.43,E,1,06,2.6,2631.3,M,-5.8,M,,EXTRA,FIELD,1,2,3*6C
$GPGGA,081958.83,9999.99,N,02308.63,E,1,03,1.4,5644.6,M,-9.3,M,,*42
$GPRMC,081958.83,A,8828.04,N,01728.63,E,13.9,262.5,999999,99.5,W*46
$GPGGA,081958.83,6021.80,N,07227.86,E,1,10,1.3,1659.4,M,-29.5,M,,
$GPRMC,259999.99,A,8301.52,N,12122.69,E,46.3,324.4,090126,134.8,W*7F
GPGGA,081958.83,2404.92,N,00707.92,E,1,10,1.3,3459.7,M,49.1,M,,*5B
$INVALID_MESSAGE_FORMAT*XX
$GPGGA,081958.83,5922.38,N,99999.99,E,1,06,1.7,2201.0,M,39.6,M,,*59
$INVALID_MESSAGE_FORMAT*XX
$GPGGA,081958.83,3305.45,N,07503.94,E,1,12,2.4,4789.2,M,2.2,M,,EXTRA,FIELD,1,2,3*4F
$GPGGA,081958.83,,N,,E,1,,,M,,M,,*68
$GPGGA,081958.83,,N,,E,1,,,M,,M,,*68
$GPRMC,259999.99,A,7042.06,N,15013.25,E,10.7,150.8,090126,45.8,W*44
$GPGGA 081958.83 6221.09 N
$GPGGA,081958.83,3216.30,N,04049.25,E,1,06,0.9,8500.6,M,-24.8,M,,EXTRA,FIELD,1,2,3*5E
$GPGGA,081958.83,XXYY.ZZ,N,01644.35,E,1,00,1.0,3063.2,M,32.7,M,,*58
$GPGGA 081958.83 0447.84 N
$GPGGA,081958.83,8748.78,N,06409.55,E,1,01,2.8,6661.4,M,-26.5,M,,EXTRA,FIELD,1,2,3*51
$GPGGA,081958.83,2020.80,N,13002.01,E,1,11,1.2,9523.5,M,45.9,M,,EXTRA,FIELD,1,2,3*78
$GPGGA,081958.83,4731.36,N,99999.99,E,1,12,1.2,8658.3,M,43.2,M,,*52
$GPVTG,465.0,T,495.0,M,280.5,N,402.5,K,M*2C
$GPGGA,081958.83,XXYY.ZZ,N,10522.09,E,1,05,1.1,2313.2,M,23.6,M,,*54
$GPGGA 081958.83 4834.38 N
GPGGA,081958.83,4606.91,N,08904.03,E,1,03,1.9,476.6,M,-39.9,M,,*46
$GPGGA,081958.83,2227.91,N,16040.50,E,1,03,1.8,5460.9,M,-34.6,M,,
$GPGGA,081958.83,5015.98,N
$GPGGA,081958.83,0938.52,N,17541.98,E,1,00,2.0,565.8,M,-34.5,M,,
$GPVTG,439.3,T,422.2,M,235.4,N,442.0,K,M*26
$GPRMC,081958.83,A,2207.00,N,16623.13,E,10.5,306.2,999999,86.1,W*45
$GPGGA,081958.83,9999.99,N,08401.76,E,1,09,1.9,-79.7,M,20.6,M,,*77
$GPGGA,081958.83,0821.52,N,12824.39,E,1,12,2.3,1479.1,M,-9.0,M,,*XX
$GPGGA 081958.83 7816.33 N
$GPGGA,081958.83,4843.11,N
$GPGGA,081958.83,7158.98,N,03614.79,E,1,08,1.9,598.0,M,38.1,M,,
$GPGGA 081958.83 3334.42 N
GPGGA,081958.83,3304.37,N,13218.70,E,1,09,2.8,1669.3,M,35.2,M,,*58
$GPRMC,081958.83,A,2345.93,N,17004.09,E,16.9,160.9,999999,73.1,W*48
$GPGGA,081958.83,8408.70,N,14805.47,E,1,07,1.4,5362.1,M,-49.7,M,,
$GPGGA 081958.83 5642.72 N
$GPGGA 081958.83 4006.01 N
$GPGGA,081958.83,6318.06,N,06846.31,E,1,09,1.9,6933.9,M,6.8,M,,*XX
$GPVTG,409.6,T,479.3,M,266.1,N,471.3,K,M*2F
$INVALID_MESSAGE_FORMAT*XX
$GPRMC,081958.83,A,2233.29,N,13333.03,E,29.3,354.9,999999,64.7,W*43
$GPGGA,081958.83,,N,,E,1,,,M,,M,,*68
$GPGGA,081958.83,6610.41,N,99999.99,E,1,01,2.8,1935.3,M,-11.7,M,,*7B
$GPGGA,081958.83,0914.29,N,13532.41,E,1,01,1.3,3444.6,M,20.2,M,,EXTRA,FIELD,1,2,3*74
$GPGGA,081958.83,1955.63,N,99999.99,E,1,03,2.7,5495.6,M,30.3,M,,*53
$GPGGA,081958.83,,N,,E,1,,,M,,M,,*68
$GPGGA 081958.83 4511.77 N
$GPGGA,081958.83,XXYY.ZZ,N,06638.60,E,1,10,2.2,3321.7,M,20.8,M,,*58
$GPGGA,081958.83,XXYY.ZZ,N,00148.03,E,1,08,1.9,671.9,M,7.6,M,,*5C
$GPGGA,081958.83,2249.91,N,02457.12,E,1,04,1.2,9061.3,M,18.2,M,,*XX
$GPGGA,081958.83,1039.19,N,05832.55,E,1,10,1.6,3772.7,M,-37.0,M,,
$GPGGA,081958.83,4907.02,N,16320.47,E,1,09,1.4,2814.6,M,6.5,M,,*XX
GPGGA,081958.83,7514.37,N,15746.47,E,1,12,2.1,2972.2,M,27.1,M,,*53
$GPGGA,081958.83,XXYY.ZZ,N,02817.92,E,1,05,1.8,8954.3,M,42.6,M,,*52
$GPGGA,081958.83,3205.00,N,99999.99,E,1,01,1.1,7081.7,M,1.7,M,,*69
$GPGGA,081958.83,0931.65,N
$GPGGA,081958.83,4022.55,N,99999.99,E,1,10,1.0,2818.7,M,-22.9,M,,*77
$GPVTG,495.7,T,445.5,M,225.4,N,441.0,K,M*20
$INVALID_MESSAGE_FORMAT*XX
$GPGGA,081958.83,4936.32,N
$GPRMC,081958.83,A,0134.62,N,02641.07,E,24.0,133.8,999999,56.7,W*43
$GPGGA,081958.83,8153.36,N,09951.44,E,1,05,2.5,9725.6,M,-42.4,M,,*XX
GPGGA,081958.83,8742.84,N,00615.54,E,1,05,1.6,456.9,M,-11.5,M,,*48
$GPRMC,259999.99,A,5603.65,N,10957.34,E,44.5,237.6,090126,104.2,W*7D
$GPGGA,081958.83,9999.99,N,12340.11,E,1,00,1.1,5665.7,M,-49.5,M,,*7C
$GPGGA,081958.83,9036.00,N,14752.68,E,1,04,2.3,1272.5,M,23.7,M,,
$GPGGA,081958.83,,N,,E,1,,,M,,M,,*68
$GPRMC,081958.83,A,4237.52,N,04023.15,E,30.3,191.0,999999,46.9,W*4A
$GPRMC,259999.99,A,8112.47,N,11434.11,E,48.2,80.9,090126,137.5,W*44
$GPGGA,081958.83,5410.91,N
$GPGGA,081958.83,2740.18,N,07631.87,E,1,05,1.2,5811.6,M,2.8,M,,*XX
$GPGGA,081958.83,6226.44,N,04755.46,E,1,11,1.6,5466.1,M,18.6,M,,*XX
$GPGGA 081958.83 5806.34 N
$GPGGA,081958.83,1530.09,N,13918.70,E,1,11,2.2,2743.0,M,8.4,M,,
$GPGGA,081958.83,8119.59,N,99999.99,E,1,07,2.0,5134.2,M,-16.4,M,,*74
$GPGGA 081958.83 4149.25 N
$GPGGA 081958.83 3314.73 N
$GPGGA,081958.83,7938.80,N,17140.83,E,1,10,2.3,3703.1,M,-48.2,M,,EXTRA,FIELD,1,2,3*52
$INVALID_MESSAGE_FORMAT*XX
GPGGA,081958.83,8221.24,N,10123.82,E,1,10,2.1,2502.3,M,38.0,M,,*51
$GPRMC,081958.83,A,4800.55,N,03740.32,E,32.0,235.5,999999,153.6,W*70
$GPGGA,081958.83,,N,,E,1,,,M,,M,,*68
$GPRMC,259999.99,A,2810.57,N,04450.99,E,31.9,16.1,090126,42.4,W*72
$INVALID_MESSAGE_FORMAT*XX
$INVALID_MESSAGE_FORMAT*XX
$GPGGA,081958.83,,N,,E,1,,,M,,M,,*68
$GPGGA,081958.83,,N,,E,1,,,M,,M,,*68
$GPRMC,081958.83,A,8821.12,N,04810.23,E,18.5,66.5,999999,120.8,W*42
$GPGGA,081958.83,2154.22,N,03158.01,E,1,10,1.0,9526.5,M,-0.6,M,,EXTRA,FIELD,1,2,3*68
$GPGGA,081958.83,4858.21,N,16308.38,E,1,08,1.8,2941.0,M,-33.5,M,,
$GPGGA,081958.83,7634.59,N,00703.81,E,1,05,2.7,7456.3,M,-1.4,M,,*XX
$GPGGA,081958.83,8217.46,N,13819.52,E,1,01,1.2,1704.8,M,-49.2,M,,*XX
$GPGGA,081958.83,0437.51,N,99999.99,E,1,08,2.7,6908.6,M,-29.3,M,,*7E
$GPVTG,424.0,T,489.5,M,240.1,N,414.9,K,M*22
$GPRMC,259999.99,A,9004.79,N,01559.15,E,33.3,127.4,090126,114.2,W*7B
$GPGGA,081958.83,1401.36,N,13307.10,E,1,04,1.9,1184.9,M,31.0,M,,*XX
$GPGGA 081958.83 6710.47 N
$GPGGA,081958.83,,N,,E,1,,,M,,M,,*68
$GPGGA,081958.83,,N,,E,1,,,M,,M,,*68
$GPGGA,081958.83,8343.37,N,99999.99,E,1,01,1.6,6935.2,M,-24.4,M,,*79
$INVALID_MESSAGE_FORMAT*XX
$GPGGA,081958.83,6345.84,N,16010.49,E,1,03,2.1,1999.6,M,-26.4,M,,
$GPGGA,081958.83,3438.85,N,17251.39,E,1,09,1.4,2364.3,M,46.8,M,,
$GPRMC,081958.83,A,5243.59,N,06522.64,E,20.4,103.3,999999,7.6,W*77
$GPGGA,081958.83,8630.34,N,15201.85,E,1,10,1.1,2275.0,M,20.2,M,,EXTRA,FIELD,1,2,3*71
$GPGGA 081958.83 6906.53 N
$GPGGA,081958.83,3142.78,N,01409.60,E,1,08,2.5,6277.6,M,4.4,M,,EXTRA,FIELD,1,2,3*4E
$GPGGA,081958.83,4448.27,N,99999.99,E,1,01,0.7,4238.2,M,38.3,M,,*5B
$GPGGA,081958.83,7133.89,N,12804.49,E,1,06,2.2,9767.1,M,25.3,M,,
$GPGGA,081958.83,0629.56,N,99999.99,E,1,02,2.0,6748.1,M,48.2,M,,*5F
$GPVTG,468.6,T,494.7,M,232.3,N,483.7,K,M*25
$GPGGA,081958.83,XXYY.ZZ,N,16631.51,E,1,00,2.0,7123.7,M,-16.7,M,,*72
$GPGGA,081958.83,XXYY.ZZ,N,11555.93,E,1,07,2.6,5095.1,M,-24.0,M,,*75
$GPGGA,081958.83,9999.99,N,13757.16,E,1,07,1.5,4192.0,M,15.6,M,,*55
$GPRMC,081958.83,A,8534.44,N,07612.68,E,36.5,171.6,999999,67.7,W*4D
GPGGA,081958.83,4801.90,N,17822.71,E,1,06,0.8,1862.8,M,6.6,M,,*6D
$GPVTG,420.7,T,473.6,M,259.5,N,415.9,K,M*2A
$GPRMC,259999.99,A,7933.79,N,00349.68,E,23.2,36.6,090126,98.1,W*71
$INVALID_MESSAGE_FORMAT*XX
$GPGGA 081958.83 8404.84 N
$GPGGA,081958.83,1114.71,N,02937.94,E,1,00,0.6,5641.0,M,35.7,M,,*XX
$GPGGA,081958.83,4841.72,N,01824.71,E,1,00,1.6,9188.5,M,25.5,M,,*XX
$GPGGA,081958.83,6708.16,N
$GPGGA,081958.83,7946.08,N,99999.99,E,1,08,2.2,5242.4,M,17.9,M,,*55
$GPGGA 081958.83 6434.43 N
$GPGGA,081958.83,0416.18,N
$GPGGA,081958.83,4639.74,N,08925.84,E,1,00,1.2,787.4,M,15.3,M,,EXTRA,FIELD,1,2,3*4B
$GPGGA,081958.83,3824.34,N,99999.99,E,1,01,0.7,5281.9,M,30.2,M,,*59
$GPRMC,259999.99,A,5016.78,N,05932.04,E,25.3,257.5,090126,27.0,W*41
$GPGGA,081958.83,6346.69,N,07851.93,E,1,06,0.5,5460.6,M,-34.5,M,,EXTRA,FIELD,1,2,3*56
$GPRMC,081958.83,A,5159.31,N,01811.72,E,25.5,281.2,999999,177.5,W*75
$GPGGA,081958.83,9999.99,N,06447.87,E,1,11,1.9,7187.4,M,22.6,M,,*57
$GPRMC,081958.83,A,0417.94,N,13428.04,E,48.5,262.4,999999,147.3,W*71
$GPGGA,081958.83,6028.78,N,07451.72,E,1,03,1.1,1822.4,M,24.0,M,,EXTRA,FIELD,1,2,3*7B
$GPGGA,081958.83,,N,,E,1,,,M,,M,,*68
$GPGGA,081958.83,2844.85,N
$GPRMC,259999.99,A,6052.98,N,00834.62,E,40.0,285.8,090126,87.7,W*41
$GPGGA,081958.83,0048.48,N,99999.99,E,1,00,2.7,2272.4,M,40.2,M,,*51
$GPGGA,081958.83,,N,,E,1,,,M,,M,,*68
$GPGGA,081958.83,3732.31,N,00156.27,E,1,04,1.6,629.3,M,-29.4,M,,
$GPGGA,081958.83,9999.99,N,12725.25,E,1,04,2.5,6786.6,M,-20.7,M,,*7C
$GPGGA,081958.83,,N,,E,1,,,M,,M,,*68
$GPVTG,459.3,T,403.0,M,296.7,N,483.3,K,M*25
$GPGGA,081958.83,9999.99,N,16944.35,E,1,07,0.9,7588.4,M,-46.5,M,,*70
$GPGGA,081958.83,1610.54,N
$GPGGA,081958.83,9999.99,N,13511.83,E,1,01,2.3,6285.4,M,-10.0,M,,*77
$GPGGA,081958.83,9999.99,N,03552.27,E,1,04,2.7,8628.3,M,-2.1,M,,*46
$GPGGA,081958.83,4441.42,N,02052.97,E,1,12,2.7,3227.7,M,4.0,M,,EXTRA,FIELD,1,2,3*4B
$GPGGA,081958.83,5538.21,N,03932.62,E,1,07,2.5,492.7,M,-4.2,M,,EXTRA,FIELD,1,2,3*56
$GPGGA,081958.83,9999.99,N,08928.45,E,1,00,2.3,5675.4,M,38.7,M,,*58
$GPGGA,081958.83,2923.20,N,02532.17,E,1,12,1.4,6139.3,M,26.4,M,,EXTRA,FIELD,1,2,3*72
$GPGGA,081958.83,7753.48,N,01836.12,E,1,03,2.5,3591.1,M,-24.1,M,,
$GPGGA,081958.83,7707.72,N,15248.04,E,1,11,0.7,8085.1,M,22.3,M,,EXTRA,FIELD,1,2,3*7E
$GPGGA,081958.83,0036.55,N
$INVALID_MESSAGE_FORMAT*XX
$GPGGA,081958.83,XXYY.ZZ,N,01700.55,E,1,02,2.0,6756.1,M,33.5,M,,*5A
$GPGGA,081958.83,9999.99,N,09400.52,E,1,11,0.8,4515.6,M,-6.6,M,,*46
$GPGGA,081958.83,6046.79,N,15606.74,E,1,09,1.4,9279.7,M,-16.4,M,,
$GPGGA,081958.83,2920.31,N,04436.42,E,1,06,0.8,2197.5,M,34.7,M,,*XX
$GPGGA,081958.83,9999.99,N,11354.38,E,1,01,1.8,456.9,M,-3.8,M,,*73
$GPGGA,081958.83,,N,,E,1,,,M,,M,,*68
GPGGA,081958.83,3239.80,N,00210.33,E,1,02,1.1,8935.6,M,-20.5,M,,*73
$GPGGA,081958.83,1451.77,N,13448.85,E,1,06,2.3,6225.5,M,38.4,M,,
$GPGGA,081958.83,9999.99,N,11856.01,E,1,08,0.8,841.7,M,4.5,M,,*5B
$GPVTG,437.8,T,405.3,M,270.7,N,402.5,K,M*24
$GPVTG,419.0,T,410.3,M,298.6,N,445.9,K,M*2C
$GPGGA,081958.83,4320.12,N,12525.21,E,1,08,1.6,6273.9,M,-38.0,M,,*XX
$GPRMC,081958.83,A,5756.58,N,05316.36,E,3.0,59.1,999999,174.3,W*7B
$GPGGA,081958.83,XXYY.ZZ,N,02942.87,E,1,00,1.6,1277.6,M,27.6,M,,*59
$GPGGA,081958.83,XXYY.ZZ,N,09537.88,E,1,02,0.5,1957.3,M,30.4,M,,*5B
