$GPVTG,172.8,T,80.9,M,37.0,N,68.6,K,M*1E
$GPRMC,072232.47,V,5530.32,S,06020.32,W,25.2,133.9,090126,14.2,W*56
$GPRMC,072232.47,A,4104.42,N,04239.34,W,14.0,285.1,090126,72.8,W*5B
$GPRMC,072232.47,V,0904.72,S,10219.26,E,42.4,240.6,090126,100.6,W*7B
$GPVTG,319.7,T,327.8,M,42.3,N,78.3,K,S*3A
$GPRMC,072232.47,V,0343.24,N,08250.92,W,42.1,70.0,090126,21.4,W*77
$GPVTG,44.6,T,279.3,M,4.1,N,7.6,K,D*1B
$GPGGA,072232.47,5041.49,S,03425.74,E,1,03,0.7,6703.2,M,-25.6,M,,*62
$GPRMC,072232.47,A,7727.91,N,01922.55,E,42.3,343.1,090126,133.8,W*7F
$GPGSA,A,1,,,,06,17,08,31,25,01,,26,06,4.8,1.1,2.3*33
$GPGGA,072232.47,8907.49,S,13042.61,E,4,05,2.0,884.4,M,5.3,M,,*48
!AIVDM,1,1,,A,AAAAAAAAAAAAAAAAAAAA,0*26
$GPRMC,072232.47,V,0601.44,S,03204.71,E,8.6,139.8,090126,106.0,W*47
$GPGSA,A,3,27,,29,23,,05,15,,21,05,25,,0.9,2.8,1.4*3B
!AIVDM,1,1,,A,AAAAAAAAAAAAAAAAAAAA,0*26
!AIVDM,1,1,,A,AAAAAAAAAAAAAAAAAAAA,0*26
!AIVDM,1,1,,A,AAAAAAAAAAAAAAAAAAAA,0*26
$GPGGA,072232.47,6452.07,N,05714.60,W,5,08,1.1,8677.1,M,38.6,M,,*46
$GPGSA,A,2,03,02,21,,19,29,32,21,11,29,14,,4.4,2.2,2.3*3F
!AIVDM,1,1,,A,AAAAAAAAAAAAAAAAAAAA,0*26
$GPRMC,072232.47,A,1643.43,S,02928.39,E,20.8,73.9,090126,133.2,W*56
$GPRMC,072232.47,A,8109.16,N,11117.49,E,35.5,195.4,090126,178.3,W*79
$GPGGA,072232.47,7201.54,N,12125.55,E,1,01,2.9,3071.3,M,-41.0,M,,*7D
$GPVTG,64.1,T,55.0,M,8.3,N,15.4,K,S*09
$GPGSA,M,2,26,14,10,03,01,,18,25,13,30,13,13,0.8,1.2,1.3*3B
$GPVTG,210.5,T,299.3,M,34.3,N,63.5,K,M*2C
$GPGGA,072232.47,6051.62,S,15051.60,E,5,00,2.0,274.8,M,49.8,M,,*7E
$GPGSA,A,3,15,22,30,03,32,07,24,15,05,,,02,3.0,2.1,1.9*3D
!AIVDM,1,1,,A,AAAAAAAAAAAAAAAAAAAA,0*26
$GPRMC,072232.47,A,1128.96,N,15435.52,E,10.1,231.8,090126,74.2,E*5C
$GPRMC,072232.47,A,8356.13,N,07424.26,E,32.1,251.6,090126,7.9,E*64
$GPVTG,259.9,T,76.3,M,32.3,N,59.8,K,N*1F
$GPRMC,072232.47,V,6639.65,N,17025.99,W,2.0,291.5,090126,40.1,E*64
!AIVDM,1,1,,A,AAAAAAAAAAAAAAAAAAAA,0*26
$GPVTG,107.6,T,98.6,M,44.9,N,83.1,K,M*1B
$GPVTG,179.7,T,295.8,M,35.7,N,66.1,K,N*22
$GPGSA,M,2,26,30,12,27,24,08,23,16,25,03,20,,3.7,1.4,2.8*3B
$GPGSA,M,2,26,29,30,01,,05,17,19,,21,04,16,2.5,2.2,1.9*36
$GPGGA,072232.47,8536.47,N,07338.42,E,5,03,1.6,9869.8,M,39.7,M,,*50
$GPGGA,072232.47,6134.36,S,11006.04,W,1,09,1.6,3162.9,M,49.4,M,,*59
$GPRMC,072232.47,A,6409.76,S,08112.86,W,33.2,198.2,090126,149.9,E*65
$GPGSA,M,1,13,25,01,,19,25,,,07,10,15,12,1.7,1.6,0.7*30
$GPVTG,169.0,T,144.1,M,43.6,N,80.7,K,D*26
$GPRMC,072232.47,A,8033.16,N,15957.80,E,26.6,277.5,090126,35.8,W*40
$GPGGA,072232.47,4841.03,S,01645.38,E,6,08,2.3,7233.7,M,-15.8,M,,*6E
$GPGSA,A,3,11,11,28,,,05,,29,23,28,28,31,1.6,1.6,1.9*3D
$GPRMC,072232.47,A,2247.93,S,15406.68,W,33.9,156.9,090126,171.8,W*70
$GPGGA,072232.47,4235.33,N,09815.45,E,3,03,0.8,3423.8,M,-2.1,M,,*44
$GPGGA,072232.47,3849.73,N,09623.28,E,5,05,1.5,7549.7,M,-40.7,M,,*7C
$GPRMC,072232.47,V,4532.95,S,12957.94,E,33.7,238.3,090126,63.4,E*5E
$GPGSA,A,1,11,,,24,01,,14,30,,29,,02,4.5,1.4,2.1*3F
$GPGSA,M,2,,15,07,,09,25,07,25,02,,03,23,2.3,2.8,2.3*38
!AIVDM,1,1,,A,AAAAAAAAAAAAAAAAAAAA,0*26
$GPRMC,072232.47,A,8124.17,S,09729.48,W,6.3,130.8,090126,116.6,W*43
!AIVDM,1,1,,A,AAAAAAAAAAAAAAAAAAAA,0*26
$GPGGA,072232.47,3609.94,S,11046.96,W,3,10,1.6,979.2,M,9.1,M,,*53
$GPRMC,072232.47,A,7617.56,S,10946.03,E,43.0,202.3,090126,114.8,W*6B
!AIVDM,1,1,,A,AAAAAAAAAAAAAAAAAAAA,0*26
$GPGGA,072232.47,0105.12,N,11408.67,W,7,06,1.1,6339.2,M,18.8,M,,*4D
$GPGSA,A,2,,30,21,08,27,07,,26,05,,02,14,3.4,2.9,0.8*3B
$GPGGA,072232.47,6657.96,S,12024.02,E,6,03,2.1,9751.7,M,28.4,M,,*4A
$GPGSA,M,3,24,07,,10,28,18,19,21,21,14,04,08,1.1,2.6,2.1*3B
$GPRMC,072232.47,V,7227.13,N,16057.88,W,45.2,317.1,090126,143.7,E*65
$GPRMC,072232.47,A,7953.22,N,13428.91,E,22.3,21.0,090126,99.9,E*64
!AIVDM,1,1,,A,AAAAAAAAAAAAAAAAAAAA,0*26
$GPGGA,072232.47,4154.86,S,14456.62,W,0,02,1.1,4801.6,M,-36.9,M,,*73
$GPGGA,072232.47,8242.47,S,10859.72,E,4,03,2.6,8177.9,M,17.8,M,,*47
!AIVDM,1,1,,A,AAAAAAAAAAAAAAAAAAAA,0*26
$GPGSA,M,1,13,11,,21,22,20,,26,08,09,15,21,4.7,1.6,2.6*3D
$GPGSA,A,1,29,02,22,17,,30,18,,24,18,01,,2.3,1.9,2.0*30
!AIVDM,1,1,,A,AAAAAAAAAAAAAAAAAAAA,0*26
$GPGSA,M,3,11,,09,,11,20,18,32,11,,30,16,2.8,0.9,1.8*33
$GPVTG,347.2,T,128.7,M,3.4,N,6.3,K,M*23
$GPVTG,29.0,T,199.2,M,6.9,N,12.9,K,A*2E
$GPVTG,267.3,T,322.2,M,36.3,N,67.2,K,M*2B
!AIVDM,1,1,,A,AAAAAAAAAAAAAAAAAAAA,0*26
$GPGSA,A,1,18,16,13,06,04,15,31,01,,11,24,05,4.2,2.4,0.8*32
$GPVTG,159.1,T,297.6,M,4.8,N,9.0,K,A*20
!AIVDM,1,1,,A,AAAAAAAAAAAAAAAAAAAA,0*26
!AIVDM,1,1,,A,AAAAAAAAAAAAAAAAAAAA,0*26
$GPVTG,285.4,T,289.4,M,32.3,N,59.8,K,N*26
!AIVDM,1,1,,A,AAAAAAAAAAAAAAAAAAAA,0*26
$GPRMC,072232.47,V,4510.30,N,07853.79,E,42.6,80.3,090126,136.4,W*5B
$GPVTG,243.5,T,187.0,M,28.9,N,53.6,K,A*2E
$GPVTG,321.6,T,28.4,M,29.1,N,53.9,K,N*11
!AIVDM,1,1,,A,AAAAAAAAAAAAAAAAAAAA,0*26
$GPVTG,216.2,T,344.3,M,34.3,N,63.5,K,S*32
!AIVDM,1,1,,A,AAAAAAAAAAAAAAAAAAAA,0*26
$GPGSA,M,1,,01,04,06,25,03,29,30,14,09,07,,3.7,2.0,0.8*36
!AIVDM,1,1,,A,AAAAAAAAAAAAAAAAAAAA,0*26
$GPRMC,072232.47,V,3803.16,N,10838.05,E,33.5,281.7,090126,31.1,W*56
$GPVTG,326.2,T,32.5,M,33.1,N,61.3,K,D*12
$GPRMC,072232.47,V,2746.89,N,00632.54,W,14.6,61.0,090126,114.5,E*51
$GPRMC,072232.47,V,5444.17,N,04404.75,E,24.7,248.2,090126,56.8,W*53
$GPGSA,A,1,31,24,25,22,,23,15,17,25,,04,21,3.7,2.6,1.0*31
$GPGSA,A,2,26,,10,05,08,17,07,05,30,13,29,10,4.7,2.0,0.9*3C
$GPGGA,072232.47,0318.64,N,11310.43,W,4,04,1.3,4898.6,M,-18.6,M,,*6C
$GPGGA,072232.47,0841.93,S,07834.87,W,4,06,0.8,5538.6,M,-12.9,M,,*77
$GPGGA,072232.47,0331.76,S,05927.70,E,3,01,2.8,5212.7,M,-23.2,M,,*6E
$GPVTG,209.4,T,180.3,M,16.1,N,29.8,K,E*27
$GPVTG,293.0,T,193.0,M,47.1,N,87.2,K,N*20
$GPGSA,M,1,22,,,31,04,29,11,,,18,17,22,1.1,2.5,2.0*3B
$GPGSA,M,2,,03,,05,02,01,10,,05,10,25,01,3.5,0.5,1.5*3E
$GPVTG,355.5,T,217.9,M,21.3,N,39.4,K,A*26
$GPGSA,M,2,32,06,,,21,15,14,25,21,22,12,21,2.8,1.4,2.9*3A
$GPRMC,072232.47,A,4738.51,S,11428.53,W,44.1,154.6,090126,142.4,E*6E
!AIVDM,1,1,,A,AAAAAAAAAAAAAAAAAAAA,0*26
$GPGSA,M,3,20,04,29,,23,,23,23,,26,29,22,4.8,2.1,2.3*33
$GPVTG,137.8,T,240.9,M,3.2,N,5.9,K,N*23
$GPRMC,072232.47,V,3241.75,S,13447.04,E,18.9,30.3,090126,136.1,W*4B
$GPGGA,072232.47,7813.15,N,16658.92,W,7,11,1.0,7275.5,M,-25.2,M,,*68
!AIVDM,1,1,,A,AAAAAAAAAAAAAAAAAAAA,0*26
!AIVDM,1,1,,A,AAAAAAAAAAAAAAAAAAAA,0*26
$GPRMC,072232.47,V,5507.19,N,08943.60,W,9.0,246.3,090126,28.2,W*7B
!AIVDM,1,1,,A,AAAAAAAAAAAAAAAAAAAA,0*26
$GPRMC,072232.47,V,3929.48,S,12159.24,E,30.8,169.9,090126,101.9,E*6B
$GPVTG,236.2,T,130.7,M,2.6,N,4.9,K,D*2F
$GPGSA,M,3,12,10,28,27,05,,,07,28,18,07,29,3.4,2.2,2.3*38
$GPRMC,072232.47,V,0212.81,S,00820.85,W,47.3,50.4,090126,3.9,E*4D
$GPGGA,072232.47,5453.00,N,12442.07,E,3,10,0.7,1314.5,M,-26.3,M,,*74
$GPRMC,072232.47,A,8408.07,N,11011.49,E,33.5,228.6,090126,2.2,E*64
$GPRMC,072232.47,V,4148.06,N,16125.27,W,18.3,174.6,090126,162.0,W*76
$GPGGA,072232.47,7331.30,S,17345.57,E,8,00,2.1,7097.1,M,14.3,M,,*43
$GPRMC,072232.47,A,5510.13,N,04501.09,W,33.1,42.1,090126,113.3,W*5D
$GPGGA,072232.47,2437.06,N,01036.87,W,3,00,1.3,7269.9,M,35.7,M,,*46
$GPGGA,072232.47,1904.61,N,16801.35,W,0,05,1.9,4252.8,M,38.9,M,,*4F
!AIVDM,1,1,,A,AAAAAAAAAAAAAAAAAAAA,0*26
$GPGGA,072232.47,2929.21,S,06716.16,E,6,01,1.5,9614.7,M,17.5,M,,*4A
$GPVTG,0.2,T,285.7,M,16.9,N,31.2,K,E*23
!AIVDM,1,1,,A,AAAAAAAAAAAAAAAAAAAA,0*26
$GPGGA,072232.47,5339.76,S,00118.15,E,8,00,1.6,2429.5,M,-23.2,M,,*6D
$GPVTG,211.3,T,251.7,M,28.9,N,53.5,K,S*31
$GPVTG,328.9,T,217.8,M,37.5,N,69.4,K,S*37
$GPGGA,072232.47,7607.43,N,09304.53,E,4,01,1.9,8370.6,M,35.5,M,,*55
$GPGSA,M,3,09,10,30,28,26,25,08,25,15,02,02,15,1.4,2.2,2.8*3C
$GPGSA,A,3,28,32,20,24,,,15,05,27,01,18,20,1.0,2.3,0.8*3B
$GPGGA,072232.47,2423.13,S,06532.71,E,7,00,1.8,1021.2,M,38.1,M,,*40
$GPVTG,330.1,T,220.4,M,42.6,N,79.0,K,S*3A
$GPRMC,072232.47,V,3738.14,N,01303.34,W,14.8,156.5,090126,100.4,W*75
$GPRMC,072232.47,A,6251.19,S,05631.51,W,1.5,277.8,090126,172.6,W*4D
!AIVDM,1,1,,A,AAAAAAAAAAAAAAAAAAAA,0*26
$GPRMC,072232.47,V,3157.60,N,14716.94,W,44.1,135.8,090126,92.4,W*49
$GPVTG,135.4,T,78.8,M,22.6,N,41.8,K,D*19
!AIVDM,1,1,,A,AAAAAAAAAAAAAAAAAAAA,0*26
$GPRMC,072232.47,A,0615.13,N,09213.17,E,48.3,132.6,090126,152.7,W*74
$GPVTG,114.7,T,3.5,M,25.5,N,47.2,K,S*37
$GPGSA,M,3,18,24,10,05,,12,27,24,13,,,26,3.1,1.8,1.6*3F
$GPVTG,121.4,T,47.5,M,25.2,N,46.6,K,S*00
$GPGGA,072232.47,4947.22,N,10246.63,W,3,12,1.2,5815.3,M,33.6,M,,*4F
$GPRMC,072232.47,A,2302.26,N,16037.90,E,25.4,4.8,090126,51.3,E*54
$GPGGA,072232.47,3943.47,S,11459.80,W,0,01,2.0,8265.9,M,42.6,M,,*5A
$GPGGA,072232.47,4825.77,S,11326.53,W,2,06,1.5,9685.4,M,-27.8,M,,*7B
!AIVDM,1,1,,A,AAAAAAAAAAAAAAAAAAAA,0*26
$GPGGA,072232.47,8741.43,N,14646.96,E,4,04,2.9,1264.7,M,-17.9,M,,*74
$GPGGA,072232.47,6448.76,N,02924.59,E,8,09,2.5,7745.7,M,-2.1,M,,*48
$GPRMC,072232.47,V,0456.02,S,15918.76,W,21.8,293.6,090126,67.1,E*4C
$GPGSA,M,1,,18,08,,04,07,17,32,23,,11,,4.4,2.2,2.5*3F
$GPGGA,072232.47,8756.02,N,17716.72,W,5,09,1.2,4443.5,M,15.4,M,,*4A
$GPRMC,072232.47,V,8810.76,S,04301.47,E,1.6,333.4,090126,100.2,W*4F
$GPGSA,A,1,,22,,10,01,06,19,,32,03,25,21,1.3,1.4,0.9*36
$GPRMC,072232.47,V,4827.55,N,01532.55,W,22.6,61.7,090126,42.8,E*60
$GPGGA,072232.47,7715.20,N,05734.70,E,8,12,1.8,2120.1,M,-44.9,M,,*7A
!AIVDM,1,1,,A,AAAAAAAAAAAAAAAAAAAA,0*26
$GPGSA,A,2,,16,07,18,25,,28,,31,23,19,13,1.3,2.0,2.3*3F
$GPGGA,072232.47,5304.27,N,00659.42,W,1,10,0.9,2903.0,M,-47.7,M,,*69
$GPRMC,072232.47,A,3153.37,S,06846.68,E,34.0,229.9,090126,135.8,E*76
$GPRMC,072232.47,A,1635.99,S,05653.38,E,34.5,13.0,090126,123.8,E*4B
$GPVTG,230.1,T,32.8,M,49.6,N,91.8,K,N*1E
$GPVTG,167.4,T,262.1,M,33.6,N,62.2,K,A*20
$GPVTG,30.9,T,301.8,M,38.8,N,71.9,K,A*1F
!AIVDM,1,1,,A,AAAAAAAAAAAAAAAAAAAA,0*26
$GPVTG,112.9,T,85.4,M,39.8,N,73.7,K,S*02
$GPVTG,257.5,T,300.4,M,28.0,N,51.8,K,D*22
$GPVTG,8.0,T,195.1,M,19.5,N,36.1,K,D*2B
$GPRMC,072232.47,A,5738.17,S,16826.87,E,5.5,298.7,090126,63.2,E*74
!AIVDM,1,1,,A,AAAAAAAAAAAAAAAAAAAA,0*26
!AIVDM,1,1,,A,AAAAAAAAAAAAAAAAAAAA,0*26
!AIVDM,1,1,,A,AAAAAAAAAAAAAAAAAAAA,0*26
$GPRMC,072232.47,A,2921.47,N,15138.53,W,31.0,185.5,090126,102.4,E*7C
$GPGGA,072232.47,4930.81,S,12351.14,E,0,10,1.3,7734.9,M,-23.2,M,,*60
!AIVDM,1,1,,A,AAAAAAAAAAAAAAAAAAAA,0*26
$GPGSA,A,2,12,31,32,31,18,19,15,14,29,10,31,31,4.8,0.9,0.9*37
!AIVDM,1,1,,A,AAAAAAAAAAAAAAAAAAAA,0*26
$GPVTG,36.4,T,295.4,M,48.8,N,90.3,K,A*16
$GPVTG,276.1,T,334.8,M,34.7,N,64.3,K,S*3E
$GPGGA,072232.47,1414.45,N,14317.82,W,8,02,0.5,8679.2,M,-34.7,M,,*61
$GPRMC,072232.47,V,0301.74,N,16645.05,W,0.4,111.4,090126,27.1,W*77
!AIVDM,1,1,,A,AAAAAAAAAAAAAAAAAAAA,0*26
$GPVTG,109.4,T,112.1,M,17.5,N,32.5,K,E*2F
$GPGGA,072232.47,4247.00,N,17100.81,W,7,09,1.6,7493.9,M,27.6,M,,*4B
$GPGSA,A,3,,28,,02,,28,,17,13,11,16,12,3.8,1.2,0.7*3F
$GPGGA,072232.47,6557.90,N,01554.23,E,0,09,1.6,87.0,M,-10.6,M,,*7F
$GPGSA,M,2,16,,18,01,,03,28,03,10,16,04,02,3.5,1.4,2.7*3C
$GPGGA,072232.47,1241.72,S,00900.09,W,1,10,0.6,7067.4,M,21.3,M,,*50
!AIVDM,1,1,,A,AAAAAAAAAAAAAAAAAAAA,0*26
$GPGSA,M,3,,,24,10,24,,24,23,07,25,,29,3.9,2.0,2.5*3C
$GPGSA,A,2,08,17,25,08,06,,25,25,13,30,23,04,0.8,1.2,0.5*3E
$GPRMC,072232.47,A,0917.94,S,12818.58,E,2.7,49.6,090126,101.2,E*7D
!AIVDM,1,1,,A,AAAAAAAAAAAAAAAAAAAA,0*26
$GPGGA,072232.47,6504.78,N,03328.58,W,1,03,2.0,1181.0,M,-5.5,M,,*51
$GPGSA,A,3,14,20,08,13,03,,02,09,18,26,30,30,1.4,0.6,2.0*3B
$GPGSA,A,2,18,16,07,,23,25,10,12,10,16,12,19,0.7,1.8,2.2*3D
$GPRMC,072232.47,A,8001.13,N,06736.07,E,26.8,168.3,090126,42.5,W*48
$GPGSA,M,3,28,,,,23,,21,10,,29,23,29,4.8,2.5,0.5*38
$GPRMC,072232.47,V,1909.56,S,02759.64,E,18.8,111.2,090126,139.0,W*79
$GPGSA,A,2,01,10,19,06,21,19,12,12,,18,18,,0.6,2.7,2.5*32
$GPRMC,072232.47,A,8100.29,N,05758.00,W,43.2,170.0,090126,117.4,W*6C
$GPRMC,072232.47,V,5045.11,S,04834.89,E,38.3,53.8,090126,112.4,E*55
$GPGSA,M,1,,,01,30,17,05,14,,25,01,20,07,2.8,1.0,0.5*35
$GPVTG,2.7,T,229.7,M,41.8,N,77.5,K,N*2F
$GPVTG,154.6,T,126.0,M,47.7,N,88.4,K,D*25
$GPVTG,167.1,T,197.8,M,16.6,N,30.8,K,E*2B
$GPRMC,072232.47,V,3336.87,N,11908.96,E,14.9,73.5,090126,70.3,E*7B
!AIVDM,1,1,,A,AAAAAAAAAAAAAAAAAAAA,0*26
!AIVDM,1,1,,A,AAAAAAAAAAAAAAAAAAAA,0*26
$GPGGA,072232.47,2636.02,S,04848.31,E,3,12,2.1,6477.4,M,43.5,M,,*43
$GPRMC,072232.47,V,0749.40,N,08256.99,W,13.0,74.8,090126,111.5,W*4C
$GPVTG,313.6,T,99.9,M,13.7,N,25.4,K,E*1F
$GPRMC,072232.47,V,4657.17,N,07455.72,W,31.2,125.4,090126,78.5,E*5C
$GPGSA,M,3,19,10,13,03,32,,08,,22,18,21,08,1.6,2.0,1.3*3A
$GPGGA,072232.47,4830.26,N,02112.74,E,0,09,1.7,637.9,M,-49.9,M,,*4D
$GPGSA,M,1,12,21,07,20,28,,17,,,28,,16,3.3,1.8,1.3*33
$GPRMC,072232.47,V,0709.53,S,05652.79,W,8.6,115.5,090126,70.1,E*73
$GPVTG,157.3,T,310.3,M,37.3,N,69.1,K,E*2F
$GPGSA,M,2,,15,13,,,10,01,,,07,06,06,3.1,2.1,2.1*3C
$GPVTG,202.2,T,327.6,M,1.5,N,2.7,K,M*2C
$GPGGA,072232.47,0407.65,N,09152.24,E,3,08,2.2,2200.0,M,31.5,M,,*5D
!AIVDM,1,1,,A,AAAAAAAAAAAAAAAAAAAA,0*26
$GPGGA,072232.47,5607.82,S,00706.89,W,2,05,1.7,1328.2,M,5.7,M,,*60
$GPGSA,A,3,32,11,,,26,11,27,21,28,03,25,07,2.4,2.9,2.0*37
$GPGGA,072232.47,3637.82,S,11534.87,W,8,04,1.5,9892.2,M,30.3,M,,*51
$GPGGA,072232.47,1212.13,S,01255.93,W,2,09,2.6,2295.9,M,36.6,M,,*55
$GPGGA,072232.47,4918.11,N,02034.38,W,5,07,1.2,8384.5,M,42.7,M,,*42
!AIVDM,1,1,,A,AAAAAAAAAAAAAAAAAAAA,0*26
$GPGGA,072232.47,8825.27,N,14216.00,W,7,01,2.6,3406.7,M,18.6,M,,*43
$GPGGA,072232.47,0519.51,N,05757.89,W,4,01,2.1,2577.4,M,30.4,M,,*40
$GPGGA,072232.47,1945.08,N,08327.18,E,5,09,1.1,3788.1,M,-34.2,M,,*7F
$GPGSA,A,2,02,08,18,18,04,08,28,28,29,28,16,,1.7,2.1,2.7*33
$GPGGA,072232.47,4856.61,S,17315.87,E,6,09,1.0,4962.4,M,41.8,M,,*4D
$GPGGA,072232.47,2432.71,S,06139.86,E,3,04,2.5,8174.1,M,-30.1,M,,*63
$GPRMC,072232.47,A,1402.77,N,05127.01,W,4.2,299.9,090126,61.9,W*65
!AIVDM,1,1,,A,AAAAAAAAAAAAAAAAAAAA,0*26
$GPRMC,072232.47,A,0601.24,S,02327.33,W,35.5,78.5,090126,74.9,W*7A
$GPRMC,072232.47,A,3626.28,S,11641.43,E,39.4,248.6,090126,128.8,W*64
$GPGGA,072232.47,1229.85,N,00137.19,W,7,08,2.2,7524.9,M,41.5,M,,*40
$GPGSA,M,1,,08,02,30,,19,21,14,04,,11,01,2.8,2.1,0.5*32
$GPRMC,072232.47,A,2127.76,S,04113.58,E,7.9,41.0,090126,68.5,W*53
$GPVTG,202.8,T,17.0,M,49.6,N,91.9,K,A*17
$GPVTG,163.9,T,168.1,M,23.2,N,42.9,K,N*23
$GPVTG,108.6,T,49.0,M,46.5,N,86.1,K,A*19
$GPRMC,072232.47,A,0247.30,N,15045.56,E,36.7,317.3,090126,137.4,W*72
$GPRMC,072232.47,V,4644.81,N,03504.96,E,21.5,359.3,090126,65.1,E*48
!AIVDM,1,1,,A,AAAAAAAAAAAAAAAAAAAA,0*26
!AIVDM,1,1,,A,AAAAAAAAAAAAAAAAAAAA,0*26
$GPVTG,229.9,T,262.5,M,41.9,N,77.6,K,D*2F
$GPVTG,80.8,T,177.4,M,18.6,N,34.5,K,S*09
$GPGGA,072232.47,7725.21,S,02346.60,E,6,07,1.0,4845.5,M,-45.0,M,,*60
$GPGSA,M,1,05,30,24,,,07,07,04,02,18,08,,4.6,1.2,2.6*3E
$GPRMC,072232.47,A,4406.58,N,14106.43,W,35.5,268.9,090126,47.2,W*58
$GPGGA,072232.47,5258.85,S,08207.20,W,6,03,2.4,6328.4,M,-20.7,M,,*7F
$GPVTG,13.4,T,5.8,M,0.7,N,1.2,K,N*13
!AIVDM,1,1,,A,AAAAAAAAAAAAAAAAAAAA,0*26
$GPGSA,M,1,05,24,02,29,25,31,01,22,30,17,09,26,1.7,2.8,1.4*33
$GPRMC,072232.47,A,7640.67,N,14332.69,E,8.2,214.2,090126,32.6,W*77
$GPGSA,M,2,06,10,02,,01,,10,18,30,24,,28,1.6,2.6,1.8*36
$GPGSA,M,1,04,01,,13,09,22,16,17,29,18,,08,2.1,2.6,0.7*39
$GPGSA,A,2,,32,04,10,,,25,18,20,21,17,21,3.6,2.7,2.1*3E
!AIVDM,1,1,,A,AAAAAAAAAAAAAAAAAAAA,0*26
!AIVDM,1,1,,A,AAAAAAAAAAAAAAAAAAAA,0*26
$GPGGA,072232.47,5000.22,N,11611.60,W,5,09,2.5,8929.7,M,-40.2,M,,*62
$GPVTG,182.9,T,11.4,M,26.8,N,49.6,K,E*16
$GPGGA,072232.47,4533.48,N,06828.78,W,3,04,2.9,2760.3,M,47.6,M,,*45
$GPVTG,178.7,T,152.0,M,21.2,N,39.2,K,E*21
!AIVDM,1,1,,A,AAAAAAAAAAAAAAAAAAAA,0*26
$GPVTG,299.1,T,337.1,M,9.1,N,16.8,K,D*14
!AIVDM,1,1,,A,AAAAAAAAAAAAAAAAAAAA,0*26
$GPRMC,072232.47,A,6132.50,N,17503.55,W,6.0,228.9,090126,9.2,W*5E
$GPGSA,M,2,29,16,24,07,23,19,07,32,29,26,18,,1.4,1.0,1.7*39
$GPRMC,072232.47,A,2652.33,S,04332.39,W,20.3,180.5,090126,58.3,W*40
$GPRMC,072232.47,V,3449.21,S,01025.30,E,41.1,146.1,090126,9.0,E*68
$GPGSA,A,1,18,31,19,29,04,28,01,18,,31,,18,3.6,1.7,0.6*30
!AIVDM,1,1,,A,AAAAAAAAAAAAAAAAAAAA,0*26
$GPGGA,072232.47,2930.66,N,11655.38,E,2,05,1.3,8565.3,M,27.2,M,,*52
$GPVTG,203.7,T,0.3,M,10.9,N,20.2,K,S*3C
$GPVTG,45.5,T,290.1,M,46.9,N,86.9,K,S*03
$GPGSA,A,2,26,,18,,,16,32,,18,,20,,3.0,2.0,1.6*35
$GPGGA,072232.47,5657.55,S,06746.77,W,1,11,1.2,7905.7,M,-8.1,M,,*4F
$GPRMC,072232.47,A,2458.02,S,09614.27,W,18.0,291.7,090126,17.9,E*53
$GPGSA,A,2,,,06,20,17,14,05,18,20,08,,04,4.9,2.7,1.9*36
$GPVTG,46.5,T,210.7,M,12.5,N,23.1,K,N*19
$GPGGA,072232.47,0852.25,S,06350.67,E,2,02,0.5,1896.0,M,5.0,M,,*7A
$GPGSA,M,3,10,,,,29,02,19,08,16,21,,09,5.0,1.7,2.2*38
!AIVDM,1,1,,A,AAAAAAAAAAAAAAAAAAAA,0*26
$GPVTG,343.1,T,265.4,M,34.2,N,63.3,K,S*32
$GPGGA,072232.47,6746.62,S,11437.90,W,6,05,1.9,1234.0,M,9.6,M,,*69
$GPGSA,M,2,02,06,28,08,08,14,,32,22,29,,07,3.8,1.1,3.0*31
$GPVTG,59.5,T,213.3,M,49.7,N,92.1,K,D*1C
$GPVTG,184.2,T,297.5,M,48.2,N,89.2,K,E*2C
$GPRMC,072232.47,V,7013.18,S,06856.48,W,45.7,105.3,090126,56.9,E*4F
$GPGGA,072232.47,0406.21,N,01045.63,E,3,03,1.3,1590.0,M,-42.9,M,,*71
$GPRMC,072232.47,A,1838.43,S,01751.01,E,40.5,55.7,090126,1.8,W*57
$GPVTG,301.0,T,313.8,M,25.6,N,47.4,K,D*2B
$GPGSA,A,3,27,13,31,27,,17,08,31,30,09,,,1.8,0.6,2.6*3F
$GPGGA,072232.47,7833.21,S,06040.40,E,6,00,1.3,2105.2,M,-31.0,M,,*60
$GPRMC,072232.47,V,7900.94,N,17951.20,W,44.0,300.9,090126,69.1,W*48
$GPVTG,48.9,T,231.1,M,0.1,N,0.1,K,N*18
$GPVTG,322.2,T,300.7,M,22.0,N,40.7,K,S*37
$GPVTG,119.9,T,160.3,M,20.4,N,37.8,K,N*22
$GPVTG,168.2,T,159.8,M,16.0,N,29.6,K,M*2D
$GPGGA,072232.47,5852.58,S,05409.22,E,0,00,2.2,3024.8,M,-6.3,M,,*5F
!AIVDM,1,1,,A,AAAAAAAAAAAAAAAAAAAA,0*26
$GPRMC,072232.47,V,1012.97,N,15843.75,E,3.4,27.8,090126,123.6,E*7F
$GPGSA,M,2,,26,,15,07,27,08,23,18,09,21,06,1.9,2.8,2.9*38
$GPGGA,072232.47,6403.79,N,03841.43,E,8,03,3.0,9827.5,M,19.0,M,,*5F
$GPGGA,072232.47,4910.18,S,12810.14,E,5,07,1.2,7930.2,M,6.1,M,,*76
$GPGSA,M,3,14,32,28,27,31,10,,,26,,08,20,3.9,1.7,2.1*37
$GPGGA,072232.47,3005.86,N,08309.64,E,0,05,0.8,4682.8,M,-9.4,M,,*4D
$GPRMC,072232.47,V,3633.47,N,07228.97,E,28.8,287.9,090126,67.1,E*47
$GPVTG,145.0,T,94.3,M,15.6,N,28.8,K,S*0F
$GPGSA,M,2,22,05,29,23,,,02,20,16,19,09,15,1.1,1.7,2.3*35
$GPRMC,072232.47,V,1233.41,S,02030.67,W,2.8,221.0,090126,5.0,W*53
$GPVTG,216.3,T,88.5,M,43.2,N,80.0,K,N*12
$GPVTG,263.6,T,289.2,M,29.7,N,55.1,K,M*22
$GPGGA,072232.47,4101.21,S,03919.26,W,1,04,0.8,4689.2,M,49.3,M,,*54
$GPGGA,072232.47,6813.08,S,16708.67,W,2,07,1.5,8310.8,M,-4.9,M,,*49
$GPGGA,072232.47,7652.18,S,11607.53,W,7,00,2.3,7404.7,M,15.2,M,,*5F
$GPRMC,072232.47,V,2533.65,S,10545.13,W,49.5,171.5,090126,122.2,W*61
$GPRMC,072232.47,A,7140.92,S,10754.82,E,44.7,325.7,090126,14.2,E*4B
!AIVDM,1,1,,A,AAAAAAAAAAAAAAAAAAAA,0*26
$GPRMC,072232.47,A,0421.40,S,11822.90,E,18.7,25.3,090126,149.5,E*4D
!AIVDM,1,1,,A,AAAAAAAAAAAAAAAAAAAA,0*26
!AIVDM,1,1,,A,AAAAAAAAAAAAAAAAAAAA,0*26
!AIVDM,1,1,,A,AAAAAAAAAAAAAAAAAAAA,0*26
$GPGGA,072232.47,4531.68,S,07003.89,E,6,12,2.2,4875.2,M,-11.4,M,,*6D
$GPVTG,97.2,T,340.9,M,25.0,N,46.3,K,N*18
$GPGGA,072232.47,8058.19,S,01431.69,W,6,09,0.7,7825.0,M,-21.2,M,,*7E
!AIVDM,1,1,,A,AAAAAAAAAAAAAAAAAAAA,0*26
$GPGGA,072232.47,8031.94,S,03429.03,E,6,12,2.9,8062.5,M,35.1,M,,*4D
!AIVDM,1,1,,A,AAAAAAAAAAAAAAAAAAAA,0*26
$GPRMC,072232.47,A,1431.38,S,11856.09,W,38.8,32.6,090126,178.1,E*5B
$GPRMC,072232.47,V,7706.34,N,13954.12,E,43.8,71.0,090126,80.5,E*7A
$GPGSA,A,2,,29,13,,24,,19,30,08,21,,,2.6,0.8,1.6*37
$GPRMC,072232.47,A,3317.76,S,14832.42,E,40.0,357.5,090126,71.9,E*4E
$GPGSA,M,1,22,,,05,15,10,22,16,32,03,,14,3.2,0.9,1.7*32
$GPRMC,072232.47,V,3537.73,N,12823.69,W,38.7,1.4,090126,102.6,E*6B
$GPGGA,072232.47,2533.66,S,17229.89,E,8,02,2.2,3658.9,M,29.0,M,,*4C
!AIVDM,1,1,,A,AAAAAAAAAAAAAAAAAAAA,0*26
$GPVTG,37.2,T,125.8,M,28.4,N,52.6,K,M*18
$GPGGA,072232.47,8728.64,S,05044.74,W,6,03,2.4,2451.7,M,49.5,M,,*58
$GPGGA,072232.47,1948.16,N,11235.42,W,3,06,1.6,978.6,M,-34.8,M,,*5B
$GPGSA,M,1,24,10,30,,16,12,25,26,10,07,20,24,2.5,2.8,1.7*36
!AIVDM,1,1,,A,AAAAAAAAAAAAAAAAAAAA,0*26
$GPGSA,M,2,29,04,15,,01,05,,13,17,14,,25,1.3,0.8,1.4*39
$GPGSA,M,2,29,03,07,,05,28,21,,22,03,14,01,0.9,2.9,2.8*33
$GPVTG,38.6,T,169.5,M,27.3,N,50.6,K,A*10
$GPVTG,95.5,T,155.4,M,43.4,N,80.3,K,N*18
!AIVDM,1,1,,A,AAAAAAAAAAAAAAAAAAAA,0*26
$GPGGA,072232.47,8208.49,S,16152.54,W,3,10,2.9,7406.9,M,36.9,M,,*51
!AIVDM,1,1,,A,AAAAAAAAAAAAAAAAAAAA,0*26
$GPGSA,M,2,05,20,17,28,12,07,01,27,03,04,25,15,3.5,1.0,1.4*32
$GPGSA,M,2,31,,22,28,32,23,,18,14,29,05,16,1.7,0.7,1.8*3A
$GPVTG,90.4,T,331.5,M,40.8,N,75.5,K,D*14
$GPVTG,68.8,T,354.6,M,46.5,N,86.2,K,N*15
$GPGGA,072232.47,3029.82,N,03117.15,W,1,03,1.7,4613.2,M,-5.3,M,,*55
$GPVTG,70.9,T,286.3,M,4.4,N,8.2,K,N*17
$GPRMC,072232.47,A,0925.60,S,13132.46,E,44.4,169.9,090126,55.5,E*42
!AIVDM,1,1,,A,AAAAAAAAAAAAAAAAAAAA,0*26
!AIVDM,1,1,,A,AAAAAAAAAAAAAAAAAAAA,0*26
$GPGGA,072232.47,0317.56,S,03936.19,E,4,06,0.6,245.5,M,-34.1,M,,*5D
$GPVTG,145.5,T,210.8,M,7.9,N,14.6,K,S*02
$GPRMC,072232.47,V,8210.24,N,04814.05,E,28.5,77.2,090126,2.8,E*40
!AIVDM,1,1,,A,AAAAAAAAAAAAAAAAAAAA,0*26
!AIVDM,1,1,,A,AAAAAAAAAAAAAAAAAAAA,0*26
$GPGGA,072232.47,2607.84,N,13712.43,E,2,00,1.2,5768.6,M,-14.8,M,,*7D
$GPRMC,072232.47,V,3803.73,N,02134.51,E,11.4,341.0,090126,175.4,E*7F
$GPGSA,A,1,,03,19,05,18,09,24,32,32,,07,27,3.7,1.0,1.0*3E
$GPRMC,072232.47,V,8152.75,S,02019.30,E,15.7,282.7,090126,7.1,W*76
$GPGGA,072232.47,5748.00,S,03916.00,E,8,01,2.7,1314.2,M,45.2,M,,*4C
!AIVDM,1,1,,A,AAAAAAAAAAAAAAAAAAAA,0*26
$GPGSA,M,3,10,26,06,21,09,09,01,20,24,11,26,19,4.5,3.0,1.1*35
$GPGSA,M,2,28,30,,15,10,,03,07,,,32,04,0.8,1.7,2.4*3A
!AIVDM,1,1,,A,AAAAAAAAAAAAAAAAAAAA,0*26
$GPVTG,173.9,T,140.6,M,7.3,N,13.5,K,E*1B
$GPGSA,A,1,19,06,28,,01,25,24,,10,25,,10,3.5,1.1,2.3*34
$GPVTG,50.9,T,339.0,M,9.6,N,17.8,K,D*22
$GPGSA,A,1,04,20,13,11,30,10,07,12,21,13,07,02,1.0,2.7,2.6*36
!AIVDM,1,1,,A,AAAAAAAAAAAAAAAAAAAA,0*26
$GPVTG,5.2,T,206.3,M,5.7,N,10.6,K,M*1A
$GPGSA,A,3,03,09,,30,,14,,,,04,29,21,2.4,0.5,1.3*33
!AIVDM,1,1,,A,AAAAAAAAAAAAAAAAAAAA,0*26
!AIVDM,1,1,,A,AAAAAAAAAAAAAAAAAAAA,0*26
$GPVTG,244.3,T,159.5,M,13.9,N,25.7,K,S*33
!AIVDM,1,1,,A,AAAAAAAAAAAAAAAAAAAA,0*26
$GPVTG,51.8,T,348.5,M,49.5,N,91.6,K,A*13
!AIVDM,1,1,,A,AAAAAAAAAAAAAAAAAAAA,0*26
$GPGSA,M,1,32,17,09,12,12,,,13,32,,,19,0.9,2.4,0.5*33
$GPRMC,072232.47,V,5120.98,S,04915.31,E,24.3,12.0,090126,52.4,W*70
$GPVTG,314.6,T,100.2,M,32.6,N,60.3,K,S*30
$GPGGA,072232.47,0718.00,N,10455.76,E,8,08,2.9,2511.4,M,38.2,M,,*53
$GPGGA,072232.47,8703.96,S,11359.82,W,2,02,2.7,5882.3,M,-14.9,M,,*71
$GPRMC,072232.47,A,8658.80,N,11906.75,W,21.9,173.4,090126,79.8,E*48
$GPGGA,072232.47,7139.98,S,11359.29,E,4,08,2.5,7433.9,M,-31.8,M,,*6A
$GPGGA,072232.47,4111.10,S,04844.65,E,7,02,2.5,150.0,M,-4.2,M,,*63
$GPRMC,072232.47,V,4526.82,N,13350.04,W,20.0,342.0,090126,173.0,E*69
$GPVTG,186.6,T,199.6,M,33.0,N,61.1,K,D*2E
$GPGGA,072232.47,8542.82,S,00756.08,E,2,04,1.8,5262.3,M,-11.0,M,,*6A
$GPRMC,072232.47,A,4715.68,S,01826.83,W,12.6,291.3,090126,29.9,W*4D
$GPGGA,072232.47,5046.51,S,12734.31,W,0,12,2.9,6268.0,M,-6.7,M,,*4B
$GPGSA,M,1,06,32,13,15,14,11,29,03,,,05,25,0.6,2.1,2.1*34
$GPGGA,072232.47,5024.08,S,08449.77,W,4,08,2.5,801.0,M,37.5,M,,*6E
!AIVDM,1,1,,A,AAAAAAAAAAAAAAAAAAAA,0*26
$GPRMC,072232.47,V,8158.40,N,17218.33,E,28.5,169.5,090126,3.4,W*6A
$GPVTG,62.6,T,309.8,M,4.8,N,9.0,K,E*12
$GPRMC,072232.47,A,4004.31,N,09329.19,W,31.6,287.1,090126,31.0,E*42
$GPGSA,M,1,07,04,21,27,13,18,,,26,22,02,32,4.5,1.7,2.5*35
$GPRMC,072232.47,V,7352.90,S,16206.96,W,7.6,331.2,090126,50.0,E*78
$GPGSA,A,3,20,13,28,30,13,15,07,12,25,02,22,05,3.5,1.2,0.5*39
$GPGSA,M,3,31,11,28,27,28,10,15,20,11,04,14,30,3.4,2.7,1.6*39
!AIVDM,1,1,,A,AAAAAAAAAAAAAAAAAAAA,0*26
$GPGGA,072232.47,3013.38,S,06910.80,E,3,05,1.8,3016.8,M,-41.8,M,,*6A
$GPVTG,190.6,T,274.3,M,29.1,N,54.0,K,S*36
$GPRMC,072232.47,A,1259.88,S,13824.77,E,11.8,57.1,090126,73.9,E*79
$GPGSA,A,1,,26,10,11,11,02,07,20,09,10,30,28,3.4,0.7,1.9*3B
$GPVTG,98.1,T,59.8,M,30.5,N,56.4,K,E*22
$GPGGA,072232.47,0442.68,N,16110.96,W,7,03,3.0,1413.3,M,20.5,M,,*4A
$GPRMC,072232.47,A,4956.54,N,05443.51,E,30.6,281.2,090126,58.1,W*4E
$GPVTG,318.8,T,171.7,M,8.0,N,14.8,K,N*1B
$GPGGA,072232.47,3813.75,N,16954.39,E,1,07,0.9,7732.1,M,-37.6,M,,*76
$GPVTG,292.3,T,292.3,M,5.0,N,9.2,K,M*21
$GPGGA,072232.47,8858.97,N,13127.56,E,7,12,2.6,2056.8,M,-34.9,M,,*74
$GPGGA,072232.47,3352.22,S,07720.92,W,4,02,2.3,9634.9,M,20.6,M,,*5B
$GPRMC,072232.47,A,3706.45,S,06648.63,E,42.8,107.7,090126,117.4,W*68
$GPGGA,072232.47,1343.26,S,10139.42,E,5,06,0.9,7095.3,M,28.1,M,,*41
$GPGGA,072232.47,2523.33,S,17422.79,E,0,06,2.5,2886.4,M,20.1,M,,*4D
$GPGGA,072232.47,5539.46,S,15929.23,E,7,07,2.2,9969.8,M,20.0,M,,*4F
$GPRMC,072232.47,A,2222.12,S,17047.19,W,16.4,39.0,090126,161.6,E*59
$GPRMC,072232.47,A,0913.65,S,17934.31,E,34.8,104.1,090126,21.4,W*50
$GPRMC,072232.47,V,7537.59,S,13435.05,E,36.5,163.6,090126,67.4,E*53
$GPRMC,072232.47,V,8412.26,N,05405.84,E,27.5,303.8,090126,13.8,E*47
$GPGGA,072232.47,8031.84,S,03040.13,W,2,02,2.0,653.4,M,3.2,M,,*53
$GPGGA,072232.47,8140.21,S,17323.07,E,6,00,1.4,6815.3,M,-7.5,M,,*5D
$GPRMC,072232.47,V,6516.44,N,08009.86,W,30.9,82.5,090126,119.2,E*51
$GPRMC,072232.47,V,1708.67,S,15839.33,E,5.5,250.1,090126,82.8,W*74
!AIVDM,1,1,,A,AAAAAAAAAAAAAAAAAAAA,0*26
!AIVDM,1,1,,A,AAAAAAAAAAAAAAAAAAAA,0*26
$GPRMC,072232.47,V,2220.96,N,11123.24,E,15.3,122.3,090126,14.5,W*5A
$GPRMC,072232.47,V,8952.98,N,06049.74,E,14.3,318.9,090126,16.8,W*51
$GPGGA,072232.47,3413.77,N,03104.89,E,0,00,1.1,4997.2,M,-11.6,M,,*70
$GPGGA,072232.47,8801.76,N,08455.34,E,5,01,1.1,7263.9,M,45.0,M,,*5F
$GPGSA,M,3,03,20,25,19,05,29,01,,,06,15,,0.9,1.2,1.6*30
$GPRMC,072232.47,A,0047.20,S,13933.46,E,39.7,243.8,090126,75.0,W*54
$GPRMC,072232.47,V,0634.96,N,10908.02,E,17.0,73.1,090126,161.4,E*4B
$GPGSA,M,3,,,27,,24,04,,25,19,06,32,23,1.5,1.3,1.2*35
$GPVTG,172.6,T,102.4,M,1.8,N,3.3,K,A*2F
$GPGGA,072232.47,6017.93,S,06046.71,W,3,03,1.8,3240.1,M,-5.3,M,,*49
$GPRMC,072232.47,A,7906.11,S,07005.80,E,19.3,10.5,090126,129.5,E*4E
$GPGGA,072232.47,9030.73,N,04007.42,W,0,09,2.6,2513.9,M,-37.9,M,,*60
$GPRMC,072232.47,A,5924.81,N,08824.21,E,21.3,341.7,090126,108.7,E*68
$GPRMC,072232.47,A,4830.66,N,14557.99,E,28.1,295.9,090126,123.8,E*68
!AIVDM,1,1,,A,AAAAAAAAAAAAAAAAAAAA,0*26
$GPGSA,A,3,,29,15,26,04,27,28,05,05,09,08,12,1.6,2.5,1.7*36
$GPRMC,072232.47,A,8511.10,S,13734.30,W,0.2,18.6,090126,131.5,W*7A
$GPVTG,257.2,T,111.5,M,35.5,N,65.7,K,S*30
$GPGGA,072232.47,3725.25,N,00625.02,W,6,08,0.6,8338.2,M,29.8,M,,*44
!AIVDM,1,1,,A,AAAAAAAAAAAAAAAAAAAA,0*26
$GPRMC,072232.47,A,8029.03,S,01637.17,W,11.2,112.3,090126,66.5,W*4F
$GPGGA,072232.47,8822.15,S,14214.15,W,7,12,2.7,546.2,M,23.5,M,,*65
$GPVTG,198.5,T,241.1,M,39.5,N,73.2,K,A*29
$GPGSA,A,3,,27,03,03,09,15,03,07,21,24,07,08,3.8,1.5,0.6*3D
$GPRMC,072232.47,V,1812.68,N,03631.82,W,29.1,299.7,090126,50.2,W*47
$GPGSA,M,1,18,,06,,,25,29,23,12,03,21,15,2.3,2.4,2.4*38
$GPRMC,072232.47,V,1852.86,N,10719.28,E,40.5,15.3,090126,174.0,W*54
$GPGGA,072232.47,6223.90,S,09322.73,E,2,10,2.8,7783.5,M,-26.2,M,,*6B
$GPGGA,072232.47,7256.41,S,15738.71,E,3,10,1.6,5932.3,M,0.9,M,,*7A
$GPRMC,072232.47,A,3817.66,S,04135.63,E,45.1,303.0,090126,89.0,W*54
$GPRMC,072232.47,A,3215.42,N,07949.13,W,36.9,178.9,090126,59.3,W*57
$GPVTG,358.4,T,202.7,M,18.3,N,34.0,K,D*26
$GPGGA,072232.47,3524.83,N,00715.73,E,2,08,1.3,8673.5,M,11.1,M,,*52
$GPRMC,072232.47,V,8211.89,S,03550.36,E,1.9,70.5,090126,11.8,W*46
$GPRMC,072232.47,V,8538.69,N,12136.83,W,37.7,243.3,090126,43.1,W*40
$GPRMC,072232.47,A,5515.60,N,04231.05,W,38.6,139.7,090126,149.5,E*78
!AIVDM,1,1,,A,AAAAAAAAAAAAAAAAAAAA,0*26
!AIVDM,1,1,,A,AAAAAAAAAAAAAAAAAAAA,0*26
$GPGGA,072232.47,0031.15,N,15908.40,E,5,03,2.6,24.1,M,-45.2,M,,*74
$GPRMC,072232.47,A,2857.13,N,15212.30,W,32.3,140.3,090126,129.6,E*77
$GPRMC,072232.47,A,4823.67,N,15234.32,W,45.4,67.4,090126,146.0,E*4C
$GPRMC,072232.47,A,7850.08,N,13842.34,W,22.4,191.1,090126,102.5,W*62
$GPRMC,072232.47,V,5640.31,N,14438.33,E,8.1,211.7,090126,130.7,E*40
$GPGSA,M,1,06,13,,05,08,14,06,07,10,29,08,31,2.9,0.7,1.1*3D
$GPGGA,072232.47,4218.56,S,09443.58,E,6,09,1.6,8598.6,M,38.4,M,,*43
$GPGSA,M,2,,10,11,08,21,15,11,32,03,06,,,3.3,2.3,1.6*33
!AIVDM,1,1,,A,AAAAAAAAAAAAAAAAAAAA,0*26
!AIVDM,1,1,,A,AAAAAAAAAAAAAAAAAAAA,0*26
$GPVTG,338.9,T,29.8,M,2.8,N,5.1,K,M*13
$GPGGA,072232.47,1028.33,N,06249.35,W,4,06,3.0,5852.4,M,-19.9,M,,*6D
$GPRMC,072232.47,V,1951.26,N,13816.53,E,9.5,268.9,090126,106.4,E*4F
$GPGGA,072232.47,0505.58,N,05314.47,E,3,12,1.8,2948.4,M,3.3,M,,*6F
$GPVTG,222.8,T,111.1,M,2.8,N,5.3,K,N*2A
$GPRMC,072232.47,A,2654.91,S,08929.70,W,13.4,33.9,090126,136.7,W*40
$GPVTG,62.3,T,240.5,M,17.8,N,32.9,K,N*1E
!AIVDM,1,1,,A,AAAAAAAAAAAAAAAAAAAA,0*26
!AIVDM,1,1,,A,AAAAAAAAAAAAAAAAAAAA,0*26
$GPVTG,252.7,T,42.8,M,22.6,N,41.9,K,N*1A
$GPGSA,M,3,24,25,,06,14,29,11,30,01,26,23,02,4.6,2.5,0.6*31
!AIVDM,1,1,,A,AAAAAAAAAAAAAAAAAAAA,0*26
$GPGGA,072232.47,1559.89,N,05355.85,E,5,10,2.6,3786.6,M,-37.5,M,,*7A
!AIVDM,1,1,,A,AAAAAAAAAAAAAAAAAAAA,0*26
$GPGGA,072232.47,5136.44,N,02118.37,W,1,05,1.1,8500.0,M,29.1,M,,*46
!AIVDM,1,1,,A,AAAAAAAAAAAAAAAAAAAA,0*26
!AIVDM,1,1,,A,AAAAAAAAAAAAAAAAAAAA,0*26
$GPVTG,183.4,T,36.1,M,20.5,N,37.9,K,D*16
$GPGSA,M,3,30,27,12,,10,03,04,,20,20,24,,3.5,0.9,2.1*37
$GPGSA,M,1,15,,01,,22,20,23,24,,,06,24,2.6,2.1,0.6*3D
$GPVTG,150.7,T,55.3,M,19.6,N,36.3,K,E*1F
!AIVDM,1,1,,A,AAAAAAAAAAAAAAAAAAAA,0*26
$GPGGA,072232.47,2927.94,N,15035.58,E,0,12,0.6,4844.1,M,20.6,M,,*58
$GPVTG,26.1,T,218.9,M,15.6,N,28.9,K,E*11
$GPVTG,29.8,T,323.3,M,17.5,N,32.5,K,E*12
$GPVTG,293.2,T,28.5,M,41.6,N,77.0,K,M*19
$GPVTG,30.0,T,323.7,M,14.3,N,26.6,K,S*03
$GPRMC,072232.47,A,6148.53,S,17353.84,E,15.9,153.6,090126,150.4,E*72
$GPGGA,072232.47,5414.90,N,02952.85,E,8,07,2.2,6485.1,M,47.2,M,,*54
$GPGGA,072232.47,5326.24,S,08940.44,E,2,08,2.8,4513.9,M,26.9,M,,*43
$GPGSA,A,2,20,32,,24,07,06,27,12,18,01,11,20,4.9,0.8,0.9*37
$GPRMC,072232.47,A,0652.85,N,05145.81,E,2.5,257.4,090126,119.9,E*52
$GPGGA,072232.47,4033.52,S,02523.74,W,8,05,2.9,8301.5,M,-49.0,M,,*78
!AIVDM,1,1,,A,AAAAAAAAAAAAAAAAAAAA,0*26
!AIVDM,1,1,,A,AAAAAAAAAAAAAAAAAAAA,0*26
$GPVTG,178.6,T,325.3,M,37.5,N,69.4,K,E*22
$GPGSA,A,1,04,24,24,,14,24,,19,05,10,22,10,1.1,1.8,1.1*33
$GPRMC,072232.47,V,1336.03,N,03944.70,E,41.3,266.7,090126,139.8,W*6D
$GPRMC,072232.47,V,3605.99,S,03909.09,W,47.2,139.4,090126,110.5,E*78
$GPGSA,M,1,,16,25,12,09,24,18,13,13,10,08,28,1.3,3.0,1.9*33
$GPGGA,072232.47,3210.13,N,17931.76,W,3,04,1.0,5717.2,M,-7.2,M,,*5C
$GPGGA,072232.47,3009.15,S,01807.64,W,8,10,1.6,7787.3,M,34.8,M,,*58
$GPGGA,072232.47,7438.21,N,14301.69,W,5,00,2.2,6308.9,M,-4.5,M,,*54
!AIVDM,1,1,,A,AAAAAAAAAAAAAAAAAAAA,0*26
$GPVTG,25.2,T,333.7,M,28.5,N,52.7,K,M*11
$GPGSA,M,3,27,15,18,,11,32,03,18,31,17,15,10,4.0,2.0,2.0*38
$GPGGA,072232.47,0135.77,N,06946.39,E,6,11,1.3,1359.5,M,43.7,M,,*57
$GPRMC,072232.47,A,1101.87,N,14854.19,E,31.6,106.6,090126,33.3,E*5D
$GPGSA,M,3,04,15,,15,21,05,15,04,,04,,13,3.0,1.7,0.9*36
!AIVDM,1,1,,A,AAAAAAAAAAAAAAAAAAAA,0*26
!AIVDM,1,1,,A,AAAAAAAAAAAAAAAAAAAA,0*26
$GPVTG,330.9,T,350.0,M,18.8,N,34.8,K,M*2E
$GPRMC,072232.47,A,2500.33,N,01218.87,W,35.5,48.0,090126,85.5,E*76
$GPRMC,072232.47,V,4310.22,S,12230.03,W,20.1,22.5,090126,72.5,E*78
$GPGSA,M,3,,14,,08,09,02,15,05,27,,14,22,3.1,1.9,0.9*3A
!AIVDM,1,1,,A,AAAAAAAAAAAAAAAAAAAA,0*26
!AIVDM,1,1,,A,AAAAAAAAAAAAAAAAAAAA,0*26
$GPRMC,072232.47,V,4528.90,S,12053.46,E,42.5,88.2,090126,102.6,E*5A
$GPVTG,119.4,T,229.2,M,43.5,N,80.5,K,N*25
$GPGSA,A,1,11,10,,17,25,32,17,,01,12,21,07,2.0,2.3,1.6*35
$GPRMC,072232.47,V,5920.63,S,15314.01,W,20.5,104.2,090126,77.3,W*50
$GPVTG,286.0,T,262.0,M,4.3,N,7.9,K,D*25
$GPVTG,12.6,T,341.5,M,12.1,N,22.5,K,E*16
$GPRMC,072232.47,A,5935.93,N,14748.52,W,29.2,81.2,090126,6.1,E*4F
$GPRMC,072232.47,V,8918.61,S,16913.14,E,33.2,51.2,090126,48.3,E*66
$GPGGA,072232.47,5333.03,S,07954.84,W,2,03,1.5,7850.8,M,13.4,M,,*50
$GPGSA,A,3,,,15,,14,06,14,27,16,01,24,17,1.7,1.3,3.0*34
$GPGGA,072232.47,2352.84,N,12156.16,W,2,09,0.6,2469.6,M,18.0,M,,*4D
$GPRMC,072232.47,V,4201.59,S,11021.39,E,12.4,2.0,090126,51.0,E*58
$GPGGA,072232.47,3919.31,N,04219.84,W,4,06,1.3,7148.4,M,30.1,M,,*44
$GPRMC,072232.47,V,5606.67,S,00025.43,E,36.7,24.3,090126,106.6,W*4B
!AIVDM,1,1,,A,AAAAAAAAAAAAAAAAAAAA,0*26
$GPGSA,M,1,24,15,01,21,10,25,32,,16,32,,,2.7,2.1,1.7*3D
!AIVDM,1,1,,A,AAAAAAAAAAAAAAAAAAAA,0*26
$GPGSA,M,2,20,06,18,,,14,26,,32,29,01,03,4.3,2.3,0.7*3A
!AIVDM,1,1,,A,AAAAAAAAAAAAAAAAAAAA,0*26
!AIVDM,1,1,,A,AAAAAAAAAAAAAAAAAAAA,0*26
$GPVTG,47.9,T,112.2,M,32.9,N,60.9,K,M*12
$GPRMC,072232.47,A,7042.52,S,02906.12,E,18.8,143.8,090126,101.6,W*6F
!AIVDM,1,1,,A,AAAAAAAAAAAAAAAAAAAA,0*26
$GPVTG,183.3,T,24.6,M,28.9,N,53.6,K,M*15
$GPVTG,101.9,T,68.2,M,5.2,N,9.6,K,M*12
!AIVDM,1,1,,A,AAAAAAAAAAAAAAAAAAAA,0*26
$GPGSA,A,3,01,02,07,18,03,12,05,32,,15,28,29,1.8,1.5,1.7*35
$GPGSA,A,3,25,23,,16,32,14,30,02,28,08,28,11,3.4,2.9,3.0*31
$GPVTG,218.6,T,171.5,M,21.8,N,40.4,K,M*2B
!AIVDM,1,1,,A,AAAAAAAAAAAAAAAAAAAA,0*26
!AIVDM,1,1,,A,AAAAAAAAAAAAAAAAAAAA,0*26
$GPVTG,279.4,T,3.3,M,42.4,N,78.5,K,N*2C
$GPRMC,072232.47,A,6457.06,S,00428.13,E,47.7,49.1,090126,32.4,W*69
$GPGSA,A,2,25,13,18,07,12,25,07,19,01,25,04,04,4.4,2.2,2.9*3E
$GPRMC,072232.47,V,1029.23,S,01154.37,E,4.1,142.6,090126,85.2,W*7C
$GPVTG,223.2,T,95.8,M,21.8,N,40.4,K,M*11
$GPVTG,280.7,T,214.3,M,16.2,N,30.0,K,A*2C
!AIVDM,1,1,,A,AAAAAAAAAAAAAAAAAAAA,0*26
!AIVDM,1,1,,A,AAAAAAAAAAAAAAAAAAAA,0*26
$GPRMC,072232.47,A,2104.51,N,03845.07,E,33.1,209.7,090126,174.1,W*73
$GPVTG,239.0,T,334.0,M,30.6,N,56.7,K,D*2B
$GPGSA,M,3,03,20,04,19,03,23,21,09,32,20,18,01,2.7,2.3,2.4*32
!AIVDM,1,1,,A,AAAAAAAAAAAAAAAAAAAA,0*26
$GPGSA,A,3,24,08,15,,17,04,,,01,07,,22,3.6,2.1,1.9*32
$GPGSA,M,2,10,,30,31,25,28,07,,,22,17,12,0.9,1.6,0.6*38
$GPVTG,254.8,T,274.2,M,45.6,N,84.4,K,M*28
$GPGSA,A,2,25,09,23,01,05,01,02,01,11,06,30,20,3.1,1.5,2.1*38
!AIVDM,1,1,,A,AAAAAAAAAAAAAAAAAAAA,0*26
!AIVDM,1,1,,A,AAAAAAAAAAAAAAAAAAAA,0*26
$GPGGA,072232.47,0407.82,S,13840.67,E,4,09,2.0,3661.3,M,45.9,M,,*45
$GPVTG,233.9,T,1.7,M,10.6,N,19.5,K,E*20
$GPVTG,86.0,T,71.6,M,46.3,N,85.8,K,A*29
$GPVTG,40.9,T,113.1,M,17.3,N,32.1,K,S*0B
$GPGSA,A,1,,11,,28,11,08,,05,03,10,17,,2.5,0.9,1.7*3B
$GPGGA,072232.47,0611.91,N,13623.51,W,0,01,2.7,1475.7,M,-41.7,M,,*6E
$GPGSA,M,3,,32,19,32,,02,13,08,28,05,01,22,3.5,1.6,3.0*32
!AIVDM,1,1,,A,AAAAAAAAAAAAAAAAAAAA,0*26
$GPRMC,072232.47,V,3512.78,N,11208.59,W,22.1,161.0,090126,61.1,E*59
!AIVDM,1,1,,A,AAAAAAAAAAAAAAAAAAAA,0*26
$GPGGA,072232.47,2058.17,S,08837.40,E,4,06,2.8,3658.9,M,-5.9,M,,*54
$GPRMC,072232.47,A,7858.03,S,11001.27,E,5.7,194.0,090126,170.5,W*56
$GPGSA,M,2,28,17,24,24,30,,20,23,,25,03,18,2.3,1.9,2.4*31
$GPRMC,072232.47,V,8322.62,S,00418.26,E,38.1,1.8,090126,50.1,W*48
$GPVTG,259.6,T,91.3,M,15.1,N,28.0,K,E*1B
$GPGGA,072232.47,4643.29,N,06100.73,E,4,02,1.1,2847.8,M,5.2,M,,*65
!AIVDM,1,1,,A,AAAAAAAAAAAAAAAAAAAA,0*26
!AIVDM,1,1,,A,AAAAAAAAAAAAAAAAAAAA,0*26
$GPGGA,072232.47,5835.56,S,13543.68,W,6,08,1.6,5757.9,M,2.9,M,,*6A
$GPGGA,072232.47,3036.13,N,01415.27,E,6,06,1.7,4171.1,M,-19.5,M,,*7C
$GPGGA,072232.47,6655.52,N,08211.53,W,6,11,1.6,7470.2,M,9.9,M,,*76
!AIVDM,1,1,,A,AAAAAAAAAAAAAAAAAAAA,0*26
$GPGSA,A,3,08,04,23,25,19,28,12,10,10,,27,26,1.0,0.9,2.1*33
$GPGGA,072232.47,5508.80,N,09932.42,E,1,07,0.8,1301.9,M,-40.3,M,,*71
$GPRMC,072232.47,V,8502.26,N,08952.95,E,30.7,317.3,090126,106.3,W*63
$GPVTG,272.3,T,69.4,M,3.8,N,7.1,K,A*11
$GPGSA,M,1,11,24,13,,,09,24,,,18,06,28,1.9,2.3,1.8*32
$GPRMC,072232.47,V,8420.43,N,03629.83,E,25.3,271.2,090126,89.0,E*49
$GPVTG,295.8,T,242.5,M,21.0,N,38.9,K,S*37
!AIVDM,1,1,,A,AAAAAAAAAAAAAAAAAAAA,0*26
$GPGGA,072232.47,0353.24,N,11228.00,E,3,02,1.4,7292.0,M,23.9,M,,*51
$GPRMC,072232.47,A,4008.93,S,17718.93,W,13.3,60.1,090126,4.1,E*59
!AIVDM,1,1,,A,AAAAAAAAAAAAAAAAAAAA,0*26
$GPGGA,072232.47,4327.47,S,02604.90,W,1,04,1.3,521.6,M,5.8,M,,*55
$GPGSA,M,2,14,26,26,19,,25,16,,20,11,03,,1.1,1.7,2.0*37
!AIVDM,1,1,,A,AAAAAAAAAAAAAAAAAAAA,0*26
$GPGGA,072232.47,0721.33,S,12346.89,E,0,05,2.4,6238.2,M,-21.6,M,,*64
$GPGSA,M,3,20,02,25,,09,21,32,,12,07,06,04,2.8,2.0,0.5*39
$GPRMC,072232.47,V,2619.37,S,14610.15,W,16.6,77.0,090126,44.8,E*7E
!AIVDM,1,1,,A,AAAAAAAAAAAAAAAAAAAA,0*26
$GPGGA,072232.47,0903.70,N,13117.43,W,7,12,2.8,9538.5,M,-37.1,M,,*61
$GPGSA,M,2,04,20,03,24,24,29,06,03,31,,,04,0.5,1.2,1.0*35
$GPGGA,072232.47,5319.27,S,09558.65,E,4,03,2.1,5682.2,M,-41.5,M,,*6E
$GPGGA,072232.47,0710.96,N,04905.15,E,8,04,2.8,6856.0,M,-5.4,M,,*4A
!AIVDM,1,1,,A,AAAAAAAAAAAAAAAAAAAA,0*26
$GPGGA,072232.47,0736.15,N,05119.46,E,2,10,2.4,223.5,M,35.3,M,,*66
$GPRMC,072232.47,A,1130.89,S,18053.60,W,19.8,139.8,090126,90.0,W*4D
$GPRMC,072232.47,V,6240.95,S,08334.48,W,42.9,122.4,090126,133.1,E*7F
!AIVDM,1,1,,A,AAAAAAAAAAAAAAAAAAAA,0*26
$GPRMC,072232.47,A,3833.07,N,17325.79,W,45.0,32.4,090126,7.0,W*52
$GPRMC,072232.47,A,2302.33,S,11230.75,W,10.9,26.7,090126,77.6,E*63
$GPGSA,M,2,14,12,,11,29,20,13,14,14,08,23,16,1.7,1.0,0.6*3D
!AIVDM,1,1,,A,AAAAAAAAAAAAAAAAAAAA,0*26
!AIVDM,1,1,,A,AAAAAAAAAAAAAAAAAAAA,0*26
$GPVTG,57.2,T,88.7,M,42.1,N,78.0,K,A*2C
$GPGGA,072232.47,2203.79,S,07859.82,E,7,11,1.1,6195.2,M,47.6,M,,*4A
$GPGSA,M,3,,20,,,01,,17,,,30,05,32,0.6,2.4,1.8*35
$GPGSA,A,1,02,12,,27,,,17,03,24,11,08,16,4.1,1.3,2.0*3D
$GPVTG,217.6,T,23.5,M,16.3,N,30.2,K,D*15
$GPVTG,125.3,T,122.4,M,2.6,N,4.8,K,D*2E
!AIVDM,1,1,,A,AAAAAAAAAAAAAAAAAAAA,0*26
$GPVTG,292.4,T,309.4,M,38.6,N,71.6,K,M*21
$GPRMC,072232.47,A,2211.99,N,17956.98,E,9.1,272.4,090126,4.7,E*54
$GPGSA,A,2,25,10,11,21,01,24,32,13,20,32,16,,4.2,0.7,2.6*33
$GPGSA,M,1,25,01,17,06,12,,12,,15,32,,15,1.4,2.5,2.0*3B
$GPVTG,179.9,T,297.0,M,11.3,N,20.9,K,N*2E
!AIVDM,1,1,,A,AAAAAAAAAAAAAAAAAAAA,0*26
!AIVDM,1,1,,A,AAAAAAAAAAAAAAAAAAAA,0*26
$GPGSA,M,3,,,07,15,08,21,28,04,08,01,01,29,3.9,1.8,1.2*3B
$GPGGA,072232.47,0302.54,S,13700.64,E,8,12,2.5,8207.7,M,17.7,M,,*45
$GPGGA,072232.47,1240.28,S,07422.45,E,2,08,1.6,8636.7,M,-28.3,M,,*6F
!AIVDM,1,1,,A,AAAAAAAAAAAAAAAAAAAA,0*26
$GPGSA,A,3,30,07,,01,10,25,22,31,,17,04,13,4.2,1.4,2.4*36
!AIVDM,1,1,,A,AAAAAAAAAAAAAAAAAAAA,0*26
$GPRMC,072232.47,V,7636.34,S,10731.05,W,27.1,180.8,090126,37.6,W*5E
$GPGGA,072232.47,5510.87,S,04124.22,W,5,09,2.9,1372.7,M,-13.7,M,,*75
!AIVDM,1,1,,A,AAAAAAAAAAAAAAAAAAAA,0*26
$GPGSA,A,2,02,18,24,26,03,29,23,05,10,,,09,3.0,2.1,2.6*3A
!AIVDM,1,1,,A,AAAAAAAAAAAAAAAAAAAA,0*26
!AIVDM,1,1,,A,AAAAAAAAAAAAAAAAAAAA,0*26
$GPGSA,M,1,,29,19,09,10,23,05,07,15,06,26,14,3.7,1.6,2.1*37
$GPVTG,54.3,T,144.0,M,16.5,N,30.5,K,A*14
$GPGGA,072232.47,5118.33,S,12247.63,W,5,08,0.5,1819.4,M,-15.1,M,,*78
$GPVTG,316.5,T,31.4,M,38.2,N,70.8,K,N*1D
$GPRMC,072232.47,A,3737.50,S,16841.49,E,15.3,261.7,090126,126.1,W*6D
$GPGSA,M,3,19,12,11,16,30,19,04,05,01,,,12,2.5,1.1,1.2*3E
$GPRMC,072232.47,V,6953.70,S,10644.95,W,15.8,254.9,090126,64.0,E*48
!AIVDM,1,1,,A,AAAAAAAAAAAAAAAAAAAA,0*26
$GPGSA,M,3,17,06,28,01,11,,15,,,22,19,13,4.2,2.6,3.0*3A
$GPRMC,072232.47,V,1823.26,S,17249.81,E,41.3,258.6,090126,47.8,W*41
$GPGSA,M,1,14,03,21,07,01,01,21,02,18,10,29,10,3.5,1.0,1.3*38
$GPRMC,072232.47,A,1728.91,N,17821.58,W,31.8,236.6,090126,149.9,W*6B
!AIVDM,1,1,,A,AAAAAAAAAAAAAAAAAAAA,0*26
$GPVTG,62.3,T,178.9,M,14.0,N,25.9,K,A*18
$GPVTG,310.6,T,173.0,M,14.5,N,26.8,K,D*2B
$GPGGA,072232.47,7714.29,N,09759.46,W,1,09,1.2,3296.6,M,-8.4,M,,*56
$GPGSA,A,3,17,22,28,,,11,23,26,05,13,04,30,1.3,2.8,2.1*30
$GPRMC,072232.47,V,3103.19,S,07156.85,W,48.3,143.2,090126,153.9,W*6F
$GPGSA,A,2,,19,07,28,28,02,10,28,,25,30,01,2.1,1.1,2.5*34
$GPVTG,157.1,T,306.7,M,48.3,N,89.4,K,E*2D
$GPVTG,91.3,T,33.0,M,17.1,N,31.6,K,E*2F
!AIVDM,1,1,,A,AAAAAAAAAAAAAAAAAAAA,0*26
$GPVTG,222.0,T,359.7,M,22.9,N,42.5,K,S*31
!AIVDM,1,1,,A,AAAAAAAAAAAAAAAAAAAA,0*26
$GPGGA,072232.47,1151.62,N,07445.53,W,0,06,2.8,2079.8,M,5.8,M,,*7B
$GPGGA,072232.47,6353.62,S,03209.36,W,0,11,2.7,9851.6,M,-5.7,M,,*44
!AIVDM,1,1,,A,AAAAAAAAAAAAAAAAAAAA,0*26
!AIVDM,1,1,,A,AAAAAAAAAAAAAAAAAAAA,0*26
$GPGGA,072232.47,1509.14,S,03205.00,W,2,04,1.1,7695.0,M,0.5,M,,*65
$GPGSA,M,1,,22,03,21,04,29,23,32,31,29,18,07,4.9,1.2,1.8*33
$GPGGA,072232.47,8633.63,S,02242.99,W,6,06,2.0,3581.4,M,25.4,M,,*50
$GPGSA,A,2,,21,30,27,32,,03,21,28,,27,06,2.6,0.5,1.3*3D
$GPGGA,072232.47,0305.55,S,03457.79,W,1,12,2.2,1955.1,M,48.4,M,,*59
!AIVDM,1,1,,A,AAAAAAAAAAAAAAAAAAAA,0*26
$GPVTG,141.9,T,306.7,M,7.2,N,13.2,K,S*0B
$GPRMC,072232.47,A,8217.06,S,06942.60,E,28.2,75.0,090126,5.9,E*4F
$GPRMC,072232.47,V,6956.80,N,14512.25,E,41.4,286.1,090126,139.9,E*78
$GPGGA,072232.47,8417.47,S,14111.35,E,3,12,1.5,1585.1,M,-35.5,M,,*6C
$GPGGA,072232.48,8745.54,S,08455.87,W,8,06,1.8,2696.9,M,-6.0,M,,*4A
$GPGGA,072232.48,7509.20,N,16729.71,E,5,06,0.9,3931.0,M,43.8,M,,*5E
$GPGSA,M,1,,20,,01,,,23,,18,,,,0.5,1.1,2.4*34
$GPRMC,072232.48,V,5657.34,S,11848.00,E,45.0,111.6,090126,154.1,W*73
$GPVTG,184.0,T,220.1,M,48.1,N,89.2,K,A*21
$GPGGA,072232.48,5918.31,N,09951.77,W,8,00,2.6,6797.3,M,44.1,M,,*47
$GPRMC,072232.48,A,4456.59,S,02542.01,E,46.6,121.4,090126,151.7,W*6E
$GPRMC,072232.48,A,5754.87,N,01446.81,W,29.0,83.2,090126,42.4,W*6C
$GPGGA,072232.48,6612.54,N,10923.44,E,6,02,1.1,2386.5,M,37.0,M,,*56
$GPRMC,072232.48,A,7918.28,N,15927.44,E,42.4,205.1,090126,142.4,E*6C
!AIVDM,1,1,,A,AAAAAAAAAAAAAAAAAAAA,0*26
$GPVTG,15.7,T,247.0,M,23.3,N,43.2,K,E*12
!AIVDM,1,1,,A,AAAAAAAAAAAAAAAAAAAA,0*26
$GPVTG,59.5,T,128.1,M,9.6,N,17.7,K,M*22
$GPGSA,A,1,29,24,32,15,19,,15,,22,08,16,,0.6,1.0,3.0*3F
$GPVTG,264.9,T,62.1,M,35.3,N,65.3,K,M*16
$GPGGA,072232.48,2417.14,S,08555.41,E,4,07,2.7,5170.2,M,-1.7,M,,*5B
$GPGGA,072232.48,1302.12,S,04719.88,W,3,00,1.9,8464.0,M,-16.8,M,,*77
$GPRMC,072232.48,A,3445.77,N,00919.97,E,17.4,204.0,090126,66.4,E*57
$GPRMC,072232.48,A,7434.36,S,05048.75,E,49.0,322.6,090126,140.5,W*63
$GPGSA,M,3,27,,,05,26,,10,31,03,13,,01,1.2,2.1,2.3*38
$GPGSA,A,1,14,,11,07,09,07,11,16,11,,03,,4.5,1.0,0.9*31
$GPGSA,A,2,08,,25,27,31,31,21,27,28,19,11,,0.9,1.7,1.3*30
$GPRMC,072232.48,V,7024.23,S,14610.61,W,37.5,124.8,090126,156.1,E*7E
$GPVTG,73.7,T,314.2,M,7.7,N,14.3,K,E*26
!AIVDM,1,1,,A,AAAAAAAAAAAAAAAAAAAA,0*26
$GPGGA,072232.48,2346.65,S,11655.23,W,6,11,0.7,1287.5,M,-32.1,M,,*7A
$GPGGA,072232.48,0104.45,N,16844.79,E,6,01,0.7,9336.7,M,-39.6,M,,*7B
$GPRMC,072232.48,A,3523.40,S,17235.24,W,29.1,74.4,090126,19.0,E*63
!AIVDM,1,1,,A,AAAAAAAAAAAAAAAAAAAA,0*26
$GPGSA,M,1,03,,,,29,03,10,28,,,,09,2.1,0.8,1.5*3A
$GPRMC,072232.48,A,5500.71,S,13213.00,W,0.4,54.9,090126,105.1,E*6C
!AIVDM,1,1,,A,AAAAAAAAAAAAAAAAAAAA,0*26
$GPVTG,245.6,T,183.1,M,12.4,N,23.0,K,M*27
$GPGSA,A,2,15,25,11,32,,03,,29,07,32,31,28,0.9,2.8,1.0*35
$GPRMC,072232.48,V,5108.00,N,15131.35,W,36.3,202.3,090126,87.0,W*4E
$GPVTG,347.3,T,45.2,M,4.6,N,8.6,K,M*13
$GPGSA,M,2,31,20,31,03,20,03,26,21,,15,14,02,0.9,1.3,2.2*30
$GPRMC,072232.48,V,2858.32,S,01806.08,W,48.3,0.6,090126,93.5,E*41
!AIVDM,1,1,,A,AAAAAAAAAAAAAAAAAAAA,0*26
!AIVDM,1,1,,A,AAAAAAAAAAAAAAAAAAAA,0*26
$GPGSA,M,3,04,19,10,15,25,21,18,06,15,,14,10,1.1,2.1,1.0*3E
$GPRMC,072232.48,A,8201.57,S,05727.14,E,45.2,286.2,090126,165.1,E*76
$GPGSA,A,1,14,31,20,,31,31,,07,02,,,14,4.5,1.6,1.1*33
$GPGSA,A,2,04,,,09,23,07,16,27,09,16,31,08,2.4,2.4,0.7*39
$GPRMC,072232.48,V,6918.42,N,00749.66,E,37.4,28.0,090126,144.6,W*5C
!AIVDM,1,1,,A,AAAAAAAAAAAAAAAAAAAA,0*26
!AIVDM,1,1,,A,AAAAAAAAAAAAAAAAAAAA,0*26
$GPRMC,072232.48,V,4648.83,S,04348.49,E,27.6,157.7,090126,93.3,E*59
!AIVDM,1,1,,A,AAAAAAAAAAAAAAAAAAAA,0*26
$GPGSA,M,2,07,06,,,03,23,05,20,13,30,27,28,4.7,2.1,2.1*36
$GPVTG,242.5,T,280.7,M,10.6,N,19.7,K,A*27
$GPGGA,072232.48,0336.16,N,17358.45,W,7,08,2.9,6179.3,M,-28.9,M,,*6D
$GPRMC,072232.48,A,2356.64,S,01331.46,W,14.7,170.0,090126,102.1,E*65
$GPGGA,072232.48,7014.93,N,03606.27,W,3,00,1.8,6988.3,M,-7.7,M,,*50
$GPGGA,072232.48,5326.80,S,14421.74,E,6,06,0.8,579.5,M,-42.4,M,,*58
$GPGSA,M,2,,15,20,12,,26,10,19,11,29,01,,0.5,1.5,1.9*34
$GPRMC,072232.48,A,2348.86,S,13152.90,W,35.9,303.6,090126,79.0,E*58
$GPGSA,A,1,32,31,24,,11,01,23,,14,03,04,02,4.9,0.7,2.6*3B
$GPGSA,M,2,29,29,31,,,25,,04,03,13,10,08,0.6,0.9,1.7*3F
$GPGSA,M,3,09,01,,30,21,14,30,25,26,03,29,29,3.1,2.9,1.6*3E
!AIVDM,1,1,,A,AAAAAAAAAAAAAAAAAAAA,0*26
$GPGSA,A,2,02,12,19,16,,21,18,,,28,31,31,4.4,1.2,2.6*3A
$GPGGA,072232.48,5548.72,S,14327.03,W,6,08,0.9,5644.0,M,-9.0,M,,*41
$GPRMC,072232.48,V,1813.24,S,03119.11,W,0.2,290.5,090126,123.3,E*4E
$GPVTG,20.1,T,175.5,M,28.0,N,51.8,K,D*15
$GPRMC,072232.48,A,1214.18,N,12039.51,E,32.9,85.5,090126,133.0,W*4F
$GPVTG,144.1,T,273.2,M,32.3,N,59.8,K,E*25
$GPVTG,61.9,T,263.6,M,21.1,N,39.1,K,S*07
$GPRMC,072232.48,V,6655.58,N,15554.14,W,15.9,98.8,090126,80.0,W*7D
$GPVTG,325.1,T,293.7,M,13.0,N,24.1,K,D*29
$GPGSA,A,2,26,02,16,26,04,28,21,,17,21,05,05,0.9,2.0,2.9*3E
$GPRMC,072232.48,A,2622.89,S,13001.58,W,8.3,22.2,090126,61.1,E*55
$GPGSA,A,1,05,17,02,28,26,,30,16,27,,,06,2.8,2.1,1.2*32
!AIVDM,1,1,,A,AAAAAAAAAAAAAAAAAAAA,0*26
$GPVTG,332.8,T,347.9,M,32.6,N,60.4,K,M*29
$GPGGA,072232.48,7548.63,S,09923.56,E,8,12,2.9,3471.8,M,28.9,M,,*49
$GPRMC,072232.48,A,3827.86,S,09933.27,W,33.1,228.6,090126,80.3,E*50
$GPRMC,072232.48,V,7056.53,N,12009.15,W,39.1,96.6,090126,9.6,E*5A
$GPGSA,M,1,19,,12,,08,,22,12,18,,23,08,1.1,2.4,1.6*3D
!AIVDM,1,1,,A,AAAAAAAAAAAAAAAAAAAA,0*26
$GPVTG,209.4,T,24.8,M,37.0,N,68.6,K,N*11
!AIVDM,1,1,,A,AAAAAAAAAAAAAAAAAAAA,0*26
!AIVDM,1,1,,A,AAAAAAAAAAAAAAAAAAAA,0*26
$GPVTG,191.5,T,329.4,M,9.8,N,18.2,K,S*0B
$GPGSA,A,1,11,04,15,,15,16,29,16,19,32,19,,4.2,1.7,1.0*3F
!AIVDM,1,1,,A,AAAAAAAAAAAAAAAAAAAA,0*26
$GPVTG,191.7,T,248.4,M,9.1,N,16.8,K,N*1F
!AIVDM,1,1,,A,AAAAAAAAAAAAAAAAAAAA,0*26
!AIVDM,1,1,,A,AAAAAAAAAAAAAAAAAAAA,0*26
$GPGGA,072232.48,3426.67,S,05950.74,W,8,06,2.7,7069.1,M,-6.6,M,,*4F
$GPRMC,072232.48,A,2121.24,S,05242.63,W,35.1,100.2,090126,36.2,E*50
!AIVDM,1,1,,A,AAAAAAAAAAAAAAAAAAAA,0*26
$GPGGA,072232.48,3119.42,N,04328.32,E,6,10,1.3,9057.7,M,-34.0,M,,*74
$GPGGA,072232.48,4450.52,S,09209.70,W,2,12,0.7,7844.2,M,42.5,M,,*57
$GPGGA,072232.48,0827.35,S,08222.33,E,1,09,2.0,2097.0,M,27.4,M,,*4C
$GPRMC,072232.48,A,8426.18,N,02054.49,E,35.6,224.0,090126,133.6,W*70
$GPRMC,072232.48,V,0454.05,S,00918.03,W,27.6,94.1,090126,146.4,E*4D
$GPGSA,A,1,09,,15,,,15,02,13,09,14,23,27,0.6,2.0,0.9*3C
$GPRMC,072232.48,A,8521.70,S,09354.36,E,41.2,151.9,090126,103.0,W*6F
$GPGGA,072232.48,5713.51,N,12501.02,W,8,06,1.7,4097.4,M,-16.8,M,,*60
!AIVDM,1,1,,A,AAAAAAAAAAAAAAAAAAAA,0*26
!AIVDM,1,1,,A,AAAAAAAAAAAAAAAAAAAA,0*26
$GPRMC,072232.48,A,5752.80,N,02541.65,W,21.0,63.3,090126,123.9,E*4C
$GPGSA,A,3,,31,26,28,23,,08,21,28,25,,10,3.6,2.4,2.7*3E
!AIVDM,1,1,,A,AAAAAAAAAAAAAAAAAAAA,0*26
!AIVDM,1,1,,A,AAAAAAAAAAAAAAAAAAAA,0*26
$GPGGA,072232.48,4456.40,N,08236.25,E,1,01,0.6,5334.6,M,31.1,M,,*5A
$GPGSA,M,1,,,12,24,26,03,27,10,,28,,24,2.1,3.0,1.3*34
$GPRMC,072232.48,V,2545.88,S,17451.99,W,9.2,63.0,090126,106.7,E*78
$GPRMC,072232.48,V,4229.87,N,08623.85,E,34.3,87.1,090126,12.4,W*66
$GPVTG,189.3,T,9.7,M,38.5,N,71.4,K,S*30
$GPVTG,46.9,T,312.1,M,38.2,N,70.8,K,E*1B
$GPGGA,072232.48,1011.41,S,17827.05,W,1,04,1.7,2873.3,M,-5.8,M,,*4C
!AIVDM,1,1,,A,AAAAAAAAAAAAAAAAAAAA,0*26
$GPRMC,072232.48,A,5557.45,S,09520.80,E,47.9,214.4,090126,86.0,E*41
$GPRMC,072232.48,A,7528.93,N,09901.03,W,29.0,283.2,090126,27.0,W*5B
$GPGSA,A,2,15,23,06,25,02,22,16,26,24,,04,29,2.7,0.8,2.6*36
$GPGSA,A,1,29,28,20,15,08,08,16,,29,22,21,11,4.0,2.7,1.5*3D
$GPVTG,124.6,T,92.2,M,8.2,N,15.2,K,A*27
$GPGSA,M,1,,07,01,06,08,03,16,,32,32,25,,3.8,1.3,2.0*3C
$GPRMC,072232.48,A,7952.67,N,16055.41,E,31.0,299.4,090126,174.3,E*61
$GPRMC,072232.48,A,1151.25,N,07318.72,W,37.3,331.6,090126,9.0,E*7E
!AIVDM,1,1,,A,AAAAAAAAAAAAAAAAAAAA,0*26
$GPGGA,072232.48,0545.76,N,08334.34,E,2,12,2.6,5553.3,M,11.4,M,,*5D
$GPGSA,M,3,,26,13,01,28,29,16,08,21,07,18,12,2.3,2.5,2.5*38
$GPGGA,072232.48,6943.60,N,07520.70,E,2,03,1.9,7377.2,M,-39.5,M,,*73
$GPGGA,072232.48,3246.27,N,13137.61,W,2,04,2.2,7798.4,M,26.4,M,,*40
$GPVTG,316.2,T,83.8,M,19.2,N,35.6,K,A*1C
$GPGGA,072232.48,0712.97,N,13338.91,E,8,10,1.2,2436.5,M,30.8,M,,*58
$GPRMC,072232.48,V,0959.90,S,02734.70,W,34.5,104.1,090126,172.3,E*7E
$GPRMC,072232.48,V,4344.63,N,17747.93,E,30.4,129.0,090126,170.0,W*6A
$GPRMC,072232.48,V,8351.00,S,12713.86,W,34.2,23.7,090126,50.9,E*7E
$GPGSA,M,3,,15,31,03,22,11,,,,30,19,18,2.6,2.4,2.3*3A
$GPVTG,107.8,T,36.6,M,19.4,N,35.9,K,S*0F
$GPGSA,M,1,,16,,01,29,05,19,26,27,,25,26,2.0,1.2,2.6*3B
$GPGGA,072232.48,2121.78,N,11809.17,W,6,09,2.7,8925.0,M,36.8,M,,*4C
$GPVTG,349.8,T,348.4,M,14.0,N,26.0,K,D*2A
$GPVTG,17.5,T,208.0,M,40.1,N,74.2,K,N*11
$GPGSA,A,2,26,32,30,19,04,14,13,30,01,22,13,06,1.8,2.0,3.0*30
!AIVDM,1,1,,A,AAAAAAAAAAAAAAAAAAAA,0*26
!AIVDM,1,1,,A,AAAAAAAAAAAAAAAAAAAA,0*26
$GPGSA,M,3,27,28,18,11,24,13,,04,30,,29,09,1.8,1.4,0.9*3C
$GPGGA,072232.48,4940.67,N,01945.04,W,8,02,2.9,1455.0,M,6.7,M,,*75
$GPGSA,M,3,17,,31,02,17,01,07,05,12,25,19,,4.7,2.5,3.0*36
$GPVTG,30.4,T,216.3,M,48.6,N,90.0,K,E*15
$GPVTG,183.8,T,260.7,M,23.3,N,43.1,K,N*29
$GPRMC,072232.48,V,5503.85,S,11641.13,W,5.3,224.4,090126,135.7,W*5D
!AIVDM,1,1,,A,AAAAAAAAAAAAAAAAAAAA,0*26
$GPGSA,M,2,09,29,24,16,18,12,06,09,23,28,22,10,1.9,2.2,2.7*3E
$GPGGA,072232.48,7606.25,N,09930.71,E,8,03,0.9,8090.2,M,40.3,M,,*54
!AIVDM,1,1,,A,AAAAAAAAAAAAAAAAAAAA,0*26
$GPGGA,072232.48,1601.51,N,10629.38,E,7,12,1.3,794.3,M,47.7,M,,*69
$GPGGA,072232.48,7253.35,S,09131.13,W,7,01,1.4,898.1,M,-10.1,M,,*43
!AIVDM,1,1,,A,AAAAAAAAAAAAAAAAAAAA,0*26
$GPVTG,111.0,T,346.1,M,18.3,N,33.9,K,S*33
$GPRMC,072232.48,A,5035.36,S,03822.92,W,25.8,118.4,090126,20.4,W*40
$GPGGA,072232.48,8752.60,S,12957.59,W,6,10,1.0,4018.1,M,22.1,M,,*59
$GPGSA,A,3,18,16,17,29,08,22,11,27,10,14,,07,3.8,1.0,2.6*31
$GPVTG,22.4,T,64.6,M,28.3,N,52.4,K,S*3B
!AIVDM,1,1,,A,AAAAAAAAAAAAAAAAAAAA,0*26
$GPGGA,072232.48,1204.16,N,17526.11,W,5,05,2.0,7083.5,M,23.1,M,,*49
!AIVDM,1,1,,A,AAAAAAAAAAAAAAAAAAAA,0*26
$GPVTG,291.8,T,355.0,M,13.7,N,25.4,K,A*24
$GPRMC,072232.48,V,5454.70,S,03806.75,E,36.4,293.7,090126,119.6,E*6D
$GPVTG,34.3,T,17.2,M,42.2,N,78.2,K,E*2E
$GPGGA,072232.48,0546.48,S,10919.46,E,4,04,0.8,823.4,M,-11.2,M,,*59
$GPVTG,14.2,T,142.0,M,20.6,N,38.1,K,N*12
$GPVTG,89.1,T,299.6,M,15.5,N,28.7,K,E*1F
$GPVTG,6.2,T,21.1,M,6.2,N,11.4,K,E*21
$GPGSA,M,1,11,16,19,,02,15,,08,,10,28,,0.5,1.3,1.3*33
$GPGSA,A,3,,03,08,06,30,30,32,,04,11,,16,4.3,0.9,1.8*3A
$GPGSA,A,2,20,28,24,06,,,,02,10,03,,,1.2,0.7,1.4*3A
$GPGSA,A,3,,,,13,,,02,32,26,,26,21,5.0,2.6,2.0*33
$GPVTG,188.4,T,158.8,M,22.9,N,42.3,K,A*2E
$GPVTG,222.1,T,188.9,M,48.5,N,89.8,K,D*2D
$GPGSA,M,2,32,24,10,27,32,03,11,10,20,07,28,14,2.6,2.3,1.3*32
$GPRMC,072232.48,A,7528.90,S,11805.85,E,40.1,110.5,090126,65.1,E*40
!AIVDM,1,1,,A,AAAAAAAAAAAAAAAAAAAA,0*26
!AIVDM,1,1,,A,AAAAAAAAAAAAAAAAAAAA,0*26
$GPGGA,072232.48,8532.62,N,18044.46,E,0,10,1.2,7576.0,M,-16.4,M,,*7B
$GPRMC,072232.48,A,0444.74,S,10448.63,W,39.1,193.2,090126,39.8,W*48
$GPGGA,072232.48,1649.15,N,02049.18,E,0,07,0.8,8048.1,M,-42.5,M,,*7B
!AIVDM,1,1,,A,AAAAAAAAAAAAAAAAAAAA,0*26
$GPGGA,072232.48,2950.38,S,14547.44,E,1,01,1.6,6587.6,M,-46.5,M,,*6B
$GPGGA,072232.48,5003.07,N,04446.36,W,5,09,1.6,7822.3,M,23.6,M,,*43
$GPGSA,A,1,25,06,29,09,,26,10,,25,11,22,23,0.9,1.3,0.9*32
$GPRMC,072232.48,V,9001.38,S,02836.81,W,47.7,88.5,090126,0.8,E*4A
$GPGGA,072232.48,1103.62,N,16044.93,E,5,04,0.8,826.4,M,-42.9,M,,*4E
$GPGSA,A,1,02,15,01,12,30,14,27,10,,08,,27,1.3,1.8,1.9*38
$GPGGA,072232.48,7538.41,S,14811.70,W,2,09,1.8,2691.2,M,-29.5,M,,*71
$GPGSA,M,2,02,29,04,29,,,10,32,11,14,21,06,4.3,1.6,1.1*39
!AIVDM,1,1,,A,AAAAAAAAAAAAAAAAAAAA,0*26
!AIVDM,1,1,,A,AAAAAAAAAAAAAAAAAAAA,0*26
$GPVTG,148.1,T,327.7,M,9.6,N,17.9,K,N*11
$GPGSA,M,1,16,32,28,32,07,06,12,08,24,08,05,08,3.1,1.1,1.1*3A
$GPGGA,072232.48,5939.75,S,17713.29,E,4,08,1.7,3558.5,M,-32.0,M,,*6E
$GPVTG,65.4,T,250.8,M,29.9,N,55.3,K,S*08
$GPVTG,168.4,T,49.7,M,29.2,N,54.1,K,E*1F
$GPVTG,346.7,T,64.9,M,19.9,N,36.8,K,E*16
$GPRMC,072232.48,A,2301.16,N,10643.87,W,2.6,255.9,090126,9.8,E*4A
$GPRMC,072232.48,A,0224.66,S,03332.70,E,38.0,125.6,090126,151.5,W*68
$GPRMC,072232.48,A,1024.11,N,13742.89,W,38.7,266.7,090126,158.1,W*6F
$GPGSA,M,2,08,03,09,05,07,11,10,12,32,,03,28,1.5,2.1,2.3*33
!AIVDM,1,1,,A,AAAAAAAAAAAAAAAAAAAA,0*26
$GPVTG,348.8,T,203.3,M,23.4,N,43.4,K,N*2F
$GPVTG,212.3,T,342.1,M,48.1,N,89.1,K,A*28
$GPGSA,A,3,03,17,15,13,16,,06,01,22,07,04,15,2.5,1.3,1.8*3A
$GPGGA,072232.48,7202.84,N,01143.96,E,8,10,1.3,4488.1,M,41.3,M,,*58
$GPRMC,072232.48,A,5223.24,S,14330.47,E,32.5,60.8,090126,143.5,W*5E
$GPRMC,072232.48,A,7357.89,S,10302.09,W,26.2,129.1,090126,49.4,W*49
$GPVTG,238.1,T,154.6,M,28.3,N,52.4,K,E*23
$GPVTG,143.7,T,251.1,M,45.6,N,84.4,K,N*25
$GPVTG,229.0,T,249.6,M,41.3,N,76.6,K,M*2E
!AIVDM,1,1,,A,AAAAAAAAAAAAAAAAAAAA,0*26
!AIVDM,1,1,,A,AAAAAAAAAAAAAAAAAAAA,0*26
!AIVDM,1,1,,A,AAAAAAAAAAAAAAAAAAAA,0*26
$GPGGA,072232.48,5721.34,S,17708.69,W,5,04,0.9,8897.9,M,-8.0,M,,*42
$GPGGA,072232.48,0040.03,N,05100.63,W,3,11,1.2,3351.4,M,34.3,M,,*47
$GPVTG,154.0,T,226.4,M,35.5,N,65.7,K,N*29
$GPRMC,072232.48,V,5239.57,S,17454.19,E,40.0,340.3,090126,106.1,E*66
!AIVDM,1,1,,A,AAAAAAAAAAAAAAAAAAAA,0*26
$GPVTG,181.6,T,165.7,M,17.0,N,31.5,K,M*25
!AIVDM,1,1,,A,AAAAAAAAAAAAAAAAAAAA,0*26
!AIVDM,1,1,,A,AAAAAAAAAAAAAAAAAAAA,0*26
$GPRMC,072232.48,A,4041.46,S,11033.00,E,45.7,138.4,090126,21.7,E*4C
$GPVTG,159.9,T,83.4,M,4.2,N,7.7,K,A*1E
$GPRMC,072232.48,V,0202.67,N,09621.06,W,34.5,22.4,090126,14.5,E*66
$GPGSA,M,1,30,,10,13,,24,14,13,27,06,24,09,3.7,1.3,2.6*33
$GPRMC,072232.48,A,1827.87,S,08357.09,E,13.1,45.2,090126,112.8,E*4A
!AIVDM,1,1,,A,AAAAAAAAAAAAAAAAAAAA,0*26
$GPGSA,A,2,,06,14,31,28,23,15,11,07,18,06,05,1.2,3.0,1.4*35
$GPGGA,072232.48,4341.11,S,03815.26,E,1,02,2.7,6238.3,M,40.3,M,,*4E
$GPGGA,072232.48,4017.08,S,10705.72,W,1,12,2.6,6469.6,M,7.5,M,,*6B
$GPGSA,M,2,03,14,21,,19,16,06,23,08,09,,29,1.2,2.3,1.2*39
$GPRMC,072232.48,V,8940.49,S,16530.05,W,49.9,144.3,090126,84.1,W*53
$GPGSA,M,2,08,15,08,,,25,24,31,04,01,20,19,4.6,2.2,1.0*34
$GPVTG,37.0,T,130.1,M,10.2,N,18.9,K,M*1B
$GPVTG,337.8,T,8.7,M,44.4,N,82.2,K,E*2B
$GPGGA,072232.48,5600.95,N,08703.54,E,4,10,1.1,629.2,M,-1.1,M,,*72
!AIVDM,1,1,,A,AAAAAAAAAAAAAAAAAAAA,0*26
$GPRMC,072232.48,A,3342.27,N,09234.48,E,10.0,344.5,090126,34.8,W*47
!AIVDM,1,1,,A,AAAAAAAAAAAAAAAAAAAA,0*26
!AIVDM,1,1,,A,AAAAAAAAAAAAAAAAAAAA,0*26
$GPVTG,24.7,T,238.5,M,31.8,N,58.9,K,E*14
$GPVTG,217.6,T,88.8,M,28.0,N,51.9,K,E*1A
$GPGSA,M,1,24,26,14,,06,31,32,,,25,16,25,4.3,1.1,2.2*3E
$GPGSA,M,2,21,08,,19,14,02,04,04,32,18,26,30,3.4,2.8,2.6*3D
!AIVDM,1,1,,A,AAAAAAAAAAAAAAAAAAAA,0*26
$GPGGA,072232.48,4428.20,S,01544.68,W,2,11,2.3,6204.1,M,-32.4,M,,*70
$GPVTG,162.3,T,308.9,M,8.7,N,16.1,K,N*11
$GPGGA,072232.48,6453.21,S,10148.16,E,6,10,2.0,9949.2,M,9.6,M,,*73
$GPRMC,072232.48,A,8350.29,N,03931.24,W,12.3,133.4,090126,103.7,E*77
$GPGSA,M,2,24,26,26,,21,21,10,20,05,06,13,28,4.1,1.7,0.5*37
$GPVTG,261.5,T,346.6,M,38.3,N,70.9,K,E*26
$GPVTG,346.9,T,268.1,M,2.8,N,5.2,K,S*39
$GPRMC,072232.48,A,2727.01,S,07019.74,E,30.5,330.5,090126,18.1,W*57
$GPVTG,47.7,T,205.4,M,38.1,N,70.6,K,E*1B
$GPGSA,M,1,27,15,29,,16,02,,09,28,17,27,15,3.5,1.0,1.3*32
!AIVDM,1,1,,A,AAAAAAAAAAAAAAAAAAAA,0*26
$GPVTG,20.6,T,245.1,M,15.1,N,28.0,K,S*08
$GPGSA,A,3,03,16,32,12,24,16,30,25,29,,27,32,4.9,2.0,0.5*34
$GPVTG,277.5,T,194.3,M,32.9,N,61.0,K,A*24
!AIVDM,1,1,,A,AAAAAAAAAAAAAAAAAAAA,0*26
$GPRMC,072232.48,V,7122.21,S,16830.99,E,7.5,48.4,090126,122.5,W*71
$GPVTG,172.1,T,64.5,M,3.8,N,7.1,K,S*0E
$GPGSA,M,3,13,12,28,13,09,05,28,05,11,29,31,19,4.4,2.0,1.2*34
$GPGGA,072232.48,1728.18,N,05215.68,E,8,09,2.8,292.6,M,-0.5,M,,*73
$GPGGA,072232.48,7759.88,N,02628.73,W,6,00,1.8,6710.1,M,-18.7,M,,*6E
$GPVTG,320.5,T,321.8,M,42.1,N,78.0,K,S*35
$GPGSA,A,3,12,,05,27,11,17,26,23,27,32,,08,1.7,2.5,0.9*36
!AIVDM,1,1,,A,AAAAAAAAAAAAAAAAAAAA,0*26
$GPGGA,072232.48,5650.54,N,12048.48,W,3,03,2.1,1889.2,M,-28.7,M,,*68
$GPGSA,A,1,13,25,,26,14,30,32,09,05,28,19,13,4.3,0.5,2.1*3B
$GPRMC,072232.48,V,5553.43,N,01955.44,E,18.0,156.7,090126,149.5,E*75
!AIVDM,1,1,,A,AAAAAAAAAAAAAAAAAAAA,0*26
$GPGSA,M,2,16,12,24,20,,,,04,01,16,16,,2.2,1.3,0.8*30
$GPVTG,151.3,T,82.4,M,16.3,N,30.3,K,N*10
!AIVDM,1,1,,A,AAAAAAAAAAAAAAAAAAAA,0*26
$GPGSA,A,2,23,02,11,16,14,06,28,12,,28,10,10,1.8,2.2,1.6*39
!AIVDM,1,1,,A,AAAAAAAAAAAAAAAAAAAA,0*26
!AIVDM,1,1,,A,AAAAAAAAAAAAAAAAAAAA,0*26
$GPGGA,072232.48,8339.54,S,08610.21,E,2,09,0.6,5812.8,M,-11.5,M,,*65
$GPVTG,340.7,T,275.1,M,31.4,N,58.1,K,N*27
$GPGGA,072232.48,3937.43,S,13206.37,E,4,03,0.8,9397.1,M,-1.8,M,,*5F
$GPGGA,072232.48,4629.39,N,01539.15,E,3,02,3.0,311.3,M,16.9,M,,*62
$GPVTG,223.7,T,341.9,M,24.0,N,44.5,K,S*39
$GPGGA,072232.48,1243.36,N,01904.45,W,4,11,1.3,790.0,M,-47.8,M,,*57
$GPVTG,78.0,T,218.9,M,33.0,N,61.1,K,N*17
$GPGGA,072232.48,8658.63,N,10518.00,W,3,03,2.9,1267.0,M,-10.7,M,,*6C
$GPRMC,072232.48,A,5850.26,N,06749.09,E,8.2,191.3,090126,71.9,E*68
$GPRMC,072232.48,A,8350.74,N,04829.71,E,30.2,202.3,090126,108.1,W*7A
!AIVDM,1,1,,A,AAAAAAAAAAAAAAAAAAAA,0*26
$GPRMC,072232.48,V,7546.86,N,02719.54,E,31.7,81.3,090126,124.1,E*42
!AIVDM,1,1,,A,AAAAAAAAAAAAAAAAAAAA,0*26
$GPVTG,132.2,T,277.4,M,38.2,N,70.7,K,S*3C
$GPVTG,240.2,T,19.3,M,23.6,N,43.7,K,E*1F
$GPGSA,A,3,03,10,27,01,06,29,21,19,22,17,,,2.4,1.1,1.1*32
$GPGGA,072232.48,8927.94,N,12423.97,E,0,06,2.5,1977.9,M,-18.8,M,,*7A
$GPRMC,072232.48,A,4127.54,N,16146.96,E,7.5,249.1,090126,37.3,E*6F
$GPVTG,295.4,T,25.1,M,23.6,N,43.7,K,N*17
$GPRMC,072232.48,V,4151.96,S,11230.82,W,15.3,218.2,090126,72.7,E*4F
$GPVTG,161.9,T,264.9,M,18.8,N,34.7,K,D*21
$GPGGA,072232.48,4226.44,S,08450.34,E,8,08,2.5,2175.6,M,10.0,M,,*47
$GPRMC,072232.48,A,1332.95,N,06816.41,W,30.6,37.8,090126,105.4,E*46
$GPGGA,072232.48,8947.96,N,01033.20,E,7,01,2.3,9808.8,M,9.5,M,,*63
$GPRMC,072232.48,A,5428.38,N,10852.36,W,31.5,278.0,090126,92.2,W*56
$GPGGA,072232.48,8842.91,S,11535.08,W,6,08,2.0,6027.7,M,-44.8,M,,*70
$GPVTG,124.1,T,332.3,M,46.8,N,86.6,K,E*22
$GPGGA,072232.48,4416.93,S,10116.46,W,5,03,1.9,5705.8,M,-16.1,M,,*7A
$GPRMC,072232.48,A,8012.67,S,04138.91,W,9.5,44.6,090126,60.3,E*52
$GPVTG,99.6,T,317.6,M,17.8,N,33.0,K,N*17
$GPGSA,A,2,,,07,,01,11,02,24,11,21,09,14,1.8,2.7,1.9*3A
$GPVTG,137.4,T,292.6,M,45.6,N,84.5,K,A*23
$GPVTG,343.1,T,57.0,M,25.1,N,46.5,K,D*10
$GPGGA,072232.48,4511.38,N,11304.95,W,1,02,1.5,2192.3,M,28.2,M,,*40
!AIVDM,1,1,,A,AAAAAAAAAAAAAAAAAAAA,0*26
$GPRMC,072232.48,V,0639.01,S,01022.27,E,40.8,26.8,090126,45.6,W*78
!AIVDM,1,1,,A,AAAAAAAAAAAAAAAAAAAA,0*26
$GPRMC,072232.48,A,4902.32,N,06910.37,E,36.8,146.6,090126,108.2,W*7B
$GPVTG,152.6,T,240.3,M,26.1,N,48.4,K,S*39
$GPRMC,072232.48,A,7239.11,S,09257.39,E,44.4,302.1,090126,169.1,E*74
$GPGSA,M,3,21,15,09,20,28,12,08,06,29,19,17,26,5.0,2.9,1.0*3B
$GPVTG,158.4,T,28.3,M,6.6,N,12.2,K,D*26
$GPGSA,A,3,02,23,07,,08,,11,,,28,30,,2.2,0.7,2.3*31
$GPRMC,072232.48,A,6709.46,S,05350.96,W,10.2,292.2,090126,98.2,E*5C
$GPRMC,072232.48,A,6826.12,S,10448.85,E,8.5,35.2,090126,49.8,E*42
!AIVDM,1,1,,A,AAAAAAAAAAAAAAAAAAAA,0*26
$GPVTG,245.1,T,88.7,M,4.9,N,9.0,K,S*00
$GPVTG,233.3,T,75.9,M,18.0,N,33.3,K,M*1F
!AIVDM,1,1,,A,AAAAAAAAAAAAAAAAAAAA,0*26
$GPGSA,M,3,14,25,26,27,25,13,30,13,,,10,29,4.7,2.9,2.4*3D
$GPVTG,170.8,T,13.2,M,35.0,N,64.8,K,A*11
$GPVTG,98.0,T,152.3,M,11.0,N,20.3,K,A*16
$GPGSA,M,1,13,01,18,18,20,01,22,08,,,03,06,1.1,1.2,0.7*35
$GPGGA,072232.48,1018.89,S,06756.51,W,4,06,0.6,2782.8,M,-4.5,M,,*48
!AIVDM,1,1,,A,AAAAAAAAAAAAAAAAAAAA,0*26
$GPGSA,A,2,19,18,29,16,,30,20,,,24,28,27,2.0,0.6,1.2*31
!AIVDM,1,1,,A,AAAAAAAAAAAAAAAAAAAA,0*26
$GPGSA,A,2,02,,18,22,21,,05,04,04,01,,,2.1,1.9,1.7*32
!AIVDM,1,1,,A,AAAAAAAAAAAAAAAAAAAA,0*26
$GPVTG,153.0,T,181.2,M,27.5,N,51.0,K,N*25
$GPVTG,132.8,T,34.0,M,2.1,N,3.9,K,S*07
$GPGGA,072232.48,5852.46,S,12300.68,W,6,08,2.5,5877.0,M,41.2,M,,*5D
$GPGSA,A,1,,19,15,19,07,20,05,31,19,22,02,,2.6,0.7,1.4*3A
$GPGGA,072232.48,5921.76,S,12053.08,W,4,09,1.8,5886.5,M,-39.0,M,,*7E
!AIVDM,1,1,,A,AAAAAAAAAAAAAAAAAAAA,0*26
$GPGSA,A,1,30,04,21,,24,20,31,03,02,25,28,30,2.0,1.0,1.8*37
$GPRMC,072232.48,V,7032.84,N,16150.13,W,44.3,93.7,090126,18.6,E*61
!AIVDM,1,1,,A,AAAAAAAAAAAAAAAAAAAA,0*26
!AIVDM,1,1,,A,AAAAAAAAAAAAAAAAAAAA,0*26
$GPVTG,138.4,T,236.7,M,14.4,N,26.7,K,D*2A
$GPVTG,357.5,T,106.8,M,32.4,N,60.0,K,M*27
!AIVDM,1,1,,A,AAAAAAAAAAAAAAAAAAAA,0*26
!AIVDM,1,1,,A,AAAAAAAAAAAAAAAAAAAA,0*26
$GPRMC,072232.48,A,0611.12,S,14617.64,W,17.7,316.5,090126,177.2,W*72
$GPGGA,072232.48,3130.88,S,13650.86,E,7,02,1.0,3035.4,M,-42.3,M,,*69
$GPRMC,072232.48,A,7353.75,N,12053.75,E,47.9,264.3,090126,105.6,E*62
$GPVTG,303.0,T,196.1,M,22.3,N,41.3,K,D*2C
$GPGSA,M,1,31,,32,31,05,11,13,08,28,24,05,10,2.5,0.7,1.3*38
$GPGSA,M,3,06,,12,,18,22,19,06,20,06,29,,0.5,2.8,2.6*38
$GPGGA,072232.48,2518.86,N,12506.96,E,1,00,1.6,6747.2,M,-15.9,M,,*7E
$GPGGA,072232.48,6019.76,S,17903.64,W,2,07,2.2,9564.0,M,-26.7,M,,*7C
!AIVDM,1,1,,A,AAAAAAAAAAAAAAAAAAAA,0*26
$GPRMC,072232.48,V,1801.21,N,07347.19,E,37.1,325.4,090126,158.1,W*67
!AIVDM,1,1,,A,AAAAAAAAAAAAAAAAAAAA,0*26
!AIVDM,1,1,,A,AAAAAAAAAAAAAAAAAAAA,0*26
$GPGGA,072232.48,7051.14,S,07449.92,W,0,11,2.7,6659.0,M,38.2,M,,*5B
$GPGGA,072232.48,6419.74,N,11935.56,W,5,06,2.3,3142.3,M,38.6,M,,*48
$GPVTG,276.3,T,354.2,M,37.2,N,68.9,K,N*2D
$GPVTG,96.7,T,152.8,M,16.5,N,30.5,K,A*11
